[
  {
    "name": "Downtown Albuquerque",
    "city": "Albuquerque",
    "state": "NM",
    "latitude": 35.0844,
    "longitude": -106.6504,
    "county": "Bernalillo County",
    "cwa": "ABQ",
    "ugc_codes": "[\"NMZ219\",\"NMC001\"]",
    "office_code": "87102",
    "observation_station": "KABQ"
  },
  {
    "name": "Uptown Albuquerque",
    "city": "Albuquerque",
    "state": "NM",
    "latitude": 35.0967,
    "longitude": -106.6043,
    "county": "Bernalillo County",
    "cwa": "ABQ",
    "ugc_codes": "[\"NMZ219\",\"NMC001\"]",
    "office_code": "87110",
    "observation_station": "KABQ"
  },
  {
    "name": "Downtown Santa Fe",
    "city": "Santa Fe",
    "state": "NM",
    "latitude": 35.6869,
    "longitude": -105.9372,
    "county": "Santa Fe County",
    "cwa": "ABQ",
    "ugc_codes": "[\"NMZ218\",\"NMC049\"]",
    "office_code": "87501",
    "observation_station": "KSAF"
  },
  {
    "name": "South Santa Fe",
    "city": "Santa Fe",
    "state": "NM",
    "latitude": 35.649,
    "longitude": -105.9454,
    "county": "Santa Fe County",
    "cwa": "ABQ",
    "ugc_codes": "[\"NMZ214\",\"NMC049\"]",
    "office_code": "87505",
    "observation_station": "KSAF"
  },
  {
    "name": "Downtown Anchorage",
    "city": "Anchorage",
    "state": "AK",
    "latitude": 61.2181,
    "longitude": -149.9003,
    "county": "Anchorage Municipality",
    "cwa": "AFC",
    "ugc_codes": "[\"AKZ701\",\"AKC020\"]",
    "office_code": "99501",
    "observation_station": "PAMR"
  },
  {
    "name": "South Anchorage",
    "city": "Anchorage",
    "state": "AK",
    "latitude": 61.1748,
    "longitude": -149.8499,
    "county": "Anchorage Municipality",
    "cwa": "AFC",
    "ugc_codes": "[\"AKZ701\",\"AKC020\"]",
    "office_code": "99507",
    "observation_station": "PAMR"
  },
  {
    "name": "Downtown Richmond",
    "city": "Richmond",
    "state": "VA",
    "latitude": 37.5407,
    "longitude": -77.436,
    "county": "City of Richmond",
    "cwa": "AKQ",
    "ugc_codes": "[\"VAZ515\",\"VAC760\"]",
    "office_code": "23219",
    "observation_station": "KRIC"
  },
  {
    "name": "The Fan Richmond",
    "city": "Richmond",
    "state": "VA",
    "latitude": 37.5488,
    "longitude": -77.4602,
    "county": "City of Richmond",
    "cwa": "AKQ",
    "ugc_codes": "[\"VAZ515\",\"VAC760\"]",
    "office_code": "23220",
    "observation_station": "KRIC"
  },
  {
    "name": "Virginia Beach Oceanfront",
    "city": "Virginia Beach",
    "state": "VA",
    "latitude": 36.8529,
    "longitude": -75.978,
    "county": "City of Virginia Beach",
    "cwa": "AKQ",
    "ugc_codes": "[\"VAZ098\",\"VAC810\"]",
    "office_code": "23451",
    "observation_station": "KNTU"
  },
  {
    "name": "Norfolk",
    "city": "Norfolk",
    "state": "VA",
    "latitude": 36.8468,
    "longitude": -76.2952,
    "county": "City of Norfolk",
    "cwa": "AKQ",
    "ugc_codes": "[\"VAZ095\",\"VAC710\"]",
    "office_code": "23502",
    "observation_station": "KNGU"
  },
  {
    "name": "Downtown Albany",
    "city": "Albany",
    "state": "NY",
    "latitude": 42.6526,
    "longitude": -73.7562,
    "county": "Albany County",
    "cwa": "ALY",
    "ugc_codes": "[\"NYZ052\",\"NYC001\"]",
    "office_code": "12207",
    "observation_station": "KALB"
  },
  {
    "name": "Center Square Albany",
    "city": "Albany",
    "state": "NY",
    "latitude": 42.6573,
    "longitude": -73.7542,
    "county": "Albany County",
    "cwa": "ALY",
    "ugc_codes": "[\"NYZ052\",\"NYC001\"]",
    "office_code": "12210",
    "observation_station": "KALB"
  },
  {
    "name": "Downtown Amarillo",
    "city": "Amarillo",
    "state": "TX",
    "latitude": 35.222,
    "longitude": -101.8313,
    "county": "Potter County",
    "cwa": "AMA",
    "ugc_codes": "[\"TXZ012\",\"TXC375\"]",
    "office_code": "79101",
    "observation_station": "KAMA"
  },
  {
    "name": "South Amarillo",
    "city": "Amarillo",
    "state": "TX",
    "latitude": 35.1936,
    "longitude": -101.8853,
    "county": "Randall County",
    "cwa": "AMA",
    "ugc_codes": "[\"TXZ017\",\"TXC381\"]",
    "office_code": "79109",
    "observation_station": "KAMA"
  },
  {
    "name": "Downtown Syracuse",
    "city": "Syracuse",
    "state": "NY",
    "latitude": 43.0481,
    "longitude": -76.1474,
    "county": "Onondaga County",
    "cwa": "BGM",
    "ugc_codes": "[\"NYZ018\",\"NYC067\"]",
    "office_code": "13202",
    "observation_station": "KSYR"
  },
  {
    "name": "University Hill Syracuse",
    "city": "Syracuse",
    "state": "NY",
    "latitude": 43.0353,
    "longitude": -76.1293,
    "county": "Onondaga County",
    "cwa": "BGM",
    "ugc_codes": "[\"NYZ018\",\"NYC067\"]",
    "office_code": "13210",
    "observation_station": "KSYR"
  },
  {
    "name": "Downtown Scranton",
    "city": "Scranton",
    "state": "PA",
    "latitude": 41.409,
    "longitude": -75.6624,
    "county": "Lackawanna County",
    "cwa": "BGM",
    "ugc_codes": "[\"PAZ044\",\"PAC069\"]",
    "office_code": "18503",
    "observation_station": "KAVP"
  },
  {
    "name": "South Scranton",
    "city": "Scranton",
    "state": "PA",
    "latitude": 41.3995,
    "longitude": -75.6604,
    "county": "Lackawanna County",
    "cwa": "BGM",
    "ugc_codes": "[\"PAZ044\",\"PAC069\"]",
    "office_code": "18505",
    "observation_station": "KAVP"
  },
  {
    "name": "Downtown Bismarck",
    "city": "Bismarck",
    "state": "ND",
    "latitude": 46.8083,
    "longitude": -100.7837,
    "county": "Burleigh County",
    "cwa": "BIS",
    "ugc_codes": "[\"NDZ035\",\"NDC015\"]",
    "office_code": "58501",
    "observation_station": "KBIS"
  },
  {
    "name": "North Bismarck",
    "city": "Bismarck",
    "state": "ND",
    "latitude": 46.8376,
    "longitude": -100.7777,
    "county": "Burleigh County",
    "cwa": "BIS",
    "ugc_codes": "[\"NDZ035\",\"NDC015\"]",
    "office_code": "58504",
    "observation_station": "KBIS"
  },
  {
    "name": "Downtown Birmingham",
    "city": "Birmingham",
    "state": "AL",
    "latitude": 33.5186,
    "longitude": -86.8104,
    "county": "Jefferson County",
    "cwa": "BMX",
    "ugc_codes": "[\"ALZ024\",\"ALC073\"]",
    "office_code": "35203",
    "observation_station": "KBHM"
  },
  {
    "name": "Five Points South Birmingham",
    "city": "Birmingham",
    "state": "AL",
    "latitude": 33.5043,
    "longitude": -86.8004,
    "county": "Jefferson County",
    "cwa": "BMX",
    "ugc_codes": "[\"ALZ024\",\"ALC073\"]",
    "office_code": "35205",
    "observation_station": "KBHM"
  },
  {
    "name": "Downtown Montgomery",
    "city": "Montgomery",
    "state": "AL",
    "latitude": 32.3792,
    "longitude": -86.3077,
    "county": "Montgomery County",
    "cwa": "BMX",
    "ugc_codes": "[\"ALZ044\",\"ALC101\"]",
    "office_code": "36104",
    "observation_station": "KMGM"
  },
  {
    "name": "Cloverdale Montgomery",
    "city": "Montgomery",
    "state": "AL",
    "latitude": 32.379,
    "longitude": -86.2787,
    "county": "Montgomery County",
    "cwa": "BMX",
    "ugc_codes": "[\"ALZ044\",\"ALC101\"]",
    "office_code": "36107",
    "observation_station": "KMGM"
  },
  {
    "name": "Downtown Boise",
    "city": "Boise",
    "state": "ID",
    "latitude": 43.6187,
    "longitude": -116.2146,
    "county": "Ada County",
    "cwa": "BOI",
    "ugc_codes": "[\"IDZ014\",\"IDC001\"]",
    "office_code": "83702",
    "observation_station": "KBOI"
  },
  {
    "name": "Southeast Boise",
    "city": "Boise",
    "state": "ID",
    "latitude": 43.594,
    "longitude": -116.1967,
    "county": "Ada County",
    "cwa": "BOI",
    "ugc_codes": "[\"IDZ014\",\"IDC001\"]",
    "office_code": "83706",
    "observation_station": "KBOI"
  },
  {
    "name": "Downtown Denver",
    "city": "Denver",
    "state": "CO",
    "latitude": 39.7507,
    "longitude": -104.9987,
    "county": "Denver County",
    "cwa": "BOU",
    "ugc_codes": "[\"COZ040\",\"COC031\"]",
    "office_code": "80202",
    "observation_station": "KBJC"
  },
  {
    "name": "University Park Denver",
    "city": "Denver",
    "state": "CO",
    "latitude": 39.7027,
    "longitude": -104.9731,
    "county": "Denver County",
    "cwa": "BOU",
    "ugc_codes": "[\"COZ040\",\"COC031\"]",
    "office_code": "80210",
    "observation_station": "KBKF"
  },
  {
    "name": "Downtown Boulder",
    "city": "Boulder",
    "state": "CO",
    "latitude": 40.015,
    "longitude": -105.2705,
    "county": "Boulder County",
    "cwa": "BOU",
    "ugc_codes": "[\"COZ039\",\"COC013\"]",
    "office_code": "80302",
    "observation_station": "KBDU"
  },
  {
    "name": "East Boulder",
    "city": "Boulder",
    "state": "CO",
    "latitude": 40.0059,
    "longitude": -105.235,
    "county": "Boulder County",
    "cwa": "BOU",
    "ugc_codes": "[\"COZ039\",\"COC013\"]",
    "office_code": "80303",
    "observation_station": "KBDU"
  },
  {
    "name": "Downtown Fort Collins",
    "city": "Fort Collins",
    "state": "CO",
    "latitude": 40.5853,
    "longitude": -105.0844,
    "county": "Larimer County",
    "cwa": "BOU",
    "ugc_codes": "[\"COZ038\",\"COC069\"]",
    "office_code": "80521",
    "observation_station": "KFNL"
  },
  {
    "name": "South Fort Collins",
    "city": "Fort Collins",
    "state": "CO",
    "latitude": 40.5353,
    "longitude": -105.0674,
    "county": "Larimer County",
    "cwa": "BOU",
    "ugc_codes": "[\"COZ038\",\"COC069\"]",
    "office_code": "80525",
    "observation_station": "KFNL"
  },
  {
    "name": "Downtown Springfield MA",
    "city": "Springfield",
    "state": "MA",
    "latitude": 42.1015,
    "longitude": -72.5898,
    "county": "Hampden County",
    "cwa": "BOX",
    "ugc_codes": "[\"MAZ011\",\"MAC013\"]",
    "office_code": "01103",
    "observation_station": "KBAF"
  },
  {
    "name": "South Springfield MA",
    "city": "Springfield",
    "state": "MA",
    "latitude": 42.0862,
    "longitude": -72.5678,
    "county": "Hampden County",
    "cwa": "BOX",
    "ugc_codes": "[\"MAZ011\",\"MAC013\"]",
    "office_code": "01108",
    "observation_station": "KCEF"
  },
  {
    "name": "Downtown Worcester",
    "city": "Worcester",
    "state": "MA",
    "latitude": 42.2626,
    "longitude": -71.8023,
    "county": "Worcester County",
    "cwa": "BOX",
    "ugc_codes": "[\"MAZ012\",\"MAC027\"]",
    "office_code": "01602",
    "observation_station": "KORH"
  },
  {
    "name": "South Worcester",
    "city": "Worcester",
    "state": "MA",
    "latitude": 42.2529,
    "longitude": -71.7994,
    "county": "Worcester County",
    "cwa": "BOX",
    "ugc_codes": "[\"MAZ012\",\"MAC027\"]",
    "office_code": "01608",
    "observation_station": "KORH"
  },
  {
    "name": "Beacon Hill Boston",
    "city": "Boston",
    "state": "MA",
    "latitude": 42.3588,
    "longitude": -71.0656,
    "county": "Suffolk County",
    "cwa": "BOX",
    "ugc_codes": "[\"MAZ015\",\"MAC025\"]",
    "office_code": "02108",
    "observation_station": "KBOS"
  },
  {
    "name": "Fenway Boston",
    "city": "Boston",
    "state": "MA",
    "latitude": 42.3467,
    "longitude": -71.1001,
    "county": "Suffolk County",
    "cwa": "BOX",
    "ugc_codes": "[\"MAZ015\",\"MAC025\"]",
    "office_code": "02215",
    "observation_station": "KBOS"
  },
  {
    "name": "Downtown Providence",
    "city": "Providence",
    "state": "RI",
    "latitude": 41.824,
    "longitude": -71.4128,
    "county": "Providence County",
    "cwa": "BOX",
    "ugc_codes": "[\"RIZ002\",\"RIC007\"]",
    "office_code": "02903",
    "observation_station": "KPVD"
  },
  {
    "name": "East Side Providence",
    "city": "Providence",
    "state": "RI",
    "latitude": 41.8296,
    "longitude": -71.3919,
    "county": "Providence County",
    "cwa": "BOX",
    "ugc_codes": "[\"RIZ002\",\"RIC007\"]",
    "office_code": "02906",
    "observation_station": "KPVD"
  },
  {
    "name": "Downtown Hartford",
    "city": "Hartford",
    "state": "CT",
    "latitude": 41.7658,
    "longitude": -72.6851,
    "county": "Hartford County",
    "cwa": "BOX",
    "ugc_codes": "[\"CTZ002\",\"CTC003\"]",
    "office_code": "06103",
    "observation_station": "KHFD"
  },
  {
    "name": "West End Hartford",
    "city": "Hartford",
    "state": "CT",
    "latitude": 41.77,
    "longitude": -72.7041,
    "county": "Hartford County",
    "cwa": "BOX",
    "ugc_codes": "[\"CTZ002\",\"CTC003\"]",
    "office_code": "06105",
    "observation_station": "KHFD"
  },
  {
    "name": "Downtown Brownsville",
    "city": "Brownsville",
    "state": "TX",
    "latitude": 25.9017,
    "longitude": -97.4975,
    "county": "Cameron County",
    "cwa": "BRO",
    "ugc_codes": "[\"TXZ255\",\"TXC061\"]",
    "office_code": "78520",
    "observation_station": "KBRO"
  },
  {
    "name": "North Brownsville",
    "city": "Brownsville",
    "state": "TX",
    "latitude": 25.9442,
    "longitude": -97.4801,
    "county": "Cameron County",
    "cwa": "BRO",
    "ugc_codes": "[\"TXZ255\",\"TXC061\"]",
    "office_code": "78521",
    "observation_station": "KBRO"
  },
  {
    "name": "Downtown Burlington",
    "city": "Burlington",
    "state": "VT",
    "latitude": 44.4759,
    "longitude": -73.2121,
    "county": "Chittenden County",
    "cwa": "BTV",
    "ugc_codes": "[\"VTZ005\",\"VTC007\"]",
    "office_code": "05401",
    "observation_station": "KPBG"
  },
  {
    "name": "South Burlington",
    "city": "South Burlington",
    "state": "VT",
    "latitude": 44.4585,
    "longitude": -73.1701,
    "county": "Chittenden County",
    "cwa": "BTV",
    "ugc_codes": "[\"VTZ005\",\"VTC007\"]",
    "office_code": "05403",
    "observation_station": "KPBG"
  },
  {
    "name": "Downtown Buffalo",
    "city": "Buffalo",
    "state": "NY",
    "latitude": 42.8864,
    "longitude": -78.8784,
    "county": "Erie County",
    "cwa": "BUF",
    "ugc_codes": "[\"NYZ010\",\"NYC029\"]",
    "office_code": "14202",
    "observation_station": "KBUF"
  },
  {
    "name": "University Heights Buffalo",
    "city": "Buffalo",
    "state": "NY",
    "latitude": 42.9227,
    "longitude": -78.8295,
    "county": "Erie County",
    "cwa": "BUF",
    "ugc_codes": "[\"NYZ010\",\"NYC029\"]",
    "office_code": "14214",
    "observation_station": "KBUF"
  },
  {
    "name": "Downtown Rochester",
    "city": "Rochester",
    "state": "NY",
    "latitude": 43.1566,
    "longitude": -77.6088,
    "county": "Monroe County",
    "cwa": "BUF",
    "ugc_codes": "[\"NYZ003\",\"NYC055\"]",
    "office_code": "14604",
    "observation_station": "KROC"
  },
  {
    "name": "Park Avenue Rochester",
    "city": "Rochester",
    "state": "NY",
    "latitude": 43.1537,
    "longitude": -77.5848,
    "county": "Monroe County",
    "cwa": "BUF",
    "ugc_codes": "[\"NYZ003\",\"NYC055\"]",
    "office_code": "14607",
    "observation_station": "KROC"
  },
  {
    "name": "Downtown Billings",
    "city": "Billings",
    "state": "MT",
    "latitude": 45.7833,
    "longitude": -108.5007,
    "county": "Yellowstone County",
    "cwa": "BYZ",
    "ugc_codes": "[\"MTZ235\",\"MTC111\"]",
    "office_code": "59101",
    "observation_station": "KBIL"
  },
  {
    "name": "West Billings",
    "city": "Billings",
    "state": "MT",
    "latitude": 45.7878,
    "longitude": -108.5601,
    "county": "Yellowstone County",
    "cwa": "BYZ",
    "ugc_codes": "[\"MTZ235\",\"MTC111\"]",
    "office_code": "59102",
    "observation_station": "KBIL"
  },
  {
    "name": "Downtown Columbia SC",
    "city": "Columbia",
    "state": "SC",
    "latitude": 34.0007,
    "longitude": -81.0348,
    "county": "Richland County",
    "cwa": "CAE",
    "ugc_codes": "[\"SCZ028\",\"SCC079\"]",
    "office_code": "29201",
    "observation_station": "KCUB"
  },
  {
    "name": "Shandon Columbia SC",
    "city": "Columbia",
    "state": "SC",
    "latitude": 33.9935,
    "longitude": -80.9958,
    "county": "Richland County",
    "cwa": "CAE",
    "ugc_codes": "[\"SCZ028\",\"SCC079\"]",
    "office_code": "29205",
    "observation_station": "KCUB"
  },
  {
    "name": "Downtown Augusta",
    "city": "Augusta",
    "state": "GA",
    "latitude": 33.4735,
    "longitude": -81.9748,
    "county": "Richmond County",
    "cwa": "CAE",
    "ugc_codes": "[\"GAZ065\",\"GAC245\"]",
    "office_code": "30901",
    "observation_station": "KDNL"
  },
  {
    "name": "West Augusta",
    "city": "Augusta",
    "state": "GA",
    "latitude": 33.4904,
    "longitude": -82.0118,
    "county": "Richmond County",
    "cwa": "CAE",
    "ugc_codes": "[\"GAZ065\",\"GAC245\"]",
    "office_code": "30904",
    "observation_station": "KDNL"
  },
  {
    "name": "Downtown Bangor",
    "city": "Bangor",
    "state": "ME",
    "latitude": 44.8012,
    "longitude": -68.7778,
    "county": "Penobscot County",
    "cwa": "CAR",
    "ugc_codes": "[\"MEZ015\",\"MEC019\"]",
    "office_code": "04401",
    "observation_station": "KBGR"
  },
  {
    "name": "Brewer",
    "city": "Brewer",
    "state": "ME",
    "latitude": 44.7967,
    "longitude": -68.7558,
    "county": "Penobscot County",
    "cwa": "CAR",
    "ugc_codes": "[\"MEZ015\",\"MEC019\"]",
    "office_code": "04412",
    "observation_station": "KBGR"
  },
  {
    "name": "Downtown Charleston SC",
    "city": "Charleston",
    "state": "SC",
    "latitude": 32.7765,
    "longitude": -79.9311,
    "county": "Charleston County",
    "cwa": "CHS",
    "ugc_codes": "[\"SCZ050\",\"SCC019\"]",
    "office_code": "29401",
    "observation_station": "KJZI"
  },
  {
    "name": "West Ashley Charleston",
    "city": "Charleston",
    "state": "SC",
    "latitude": 32.7791,
    "longitude": -79.9914,
    "county": "Charleston County",
    "cwa": "CHS",
    "ugc_codes": "[\"SCZ050\",\"SCC019\"]",
    "office_code": "29407",
    "observation_station": "KJZI"
  },
  {
    "name": "Historic Savannah",
    "city": "Savannah",
    "state": "GA",
    "latitude": 32.0809,
    "longitude": -81.0912,
    "county": "Chatham County",
    "cwa": "CHS",
    "ugc_codes": "[\"GAZ119\",\"GAC051\"]",
    "office_code": "31401",
    "observation_station": "KSVN"
  },
  {
    "name": "Southside Savannah",
    "city": "Savannah",
    "state": "GA",
    "latitude": 31.9974,
    "longitude": -81.1172,
    "county": "Chatham County",
    "cwa": "CHS",
    "ugc_codes": "[\"GAZ118\",\"GAC051\"]",
    "office_code": "31405",
    "observation_station": "KSVN"
  },
  {
    "name": "Downtown Erie",
    "city": "Erie",
    "state": "PA",
    "latitude": 42.1292,
    "longitude": -80.0851,
    "county": "Erie County",
    "cwa": "CLE",
    "ugc_codes": "[\"PAZ001\",\"PAC049\"]",
    "office_code": "16501",
    "observation_station": "KERI"
  },
  {
    "name": "East Erie",
    "city": "Erie",
    "state": "PA",
    "latitude": 42.1289,
    "longitude": -80.0655,
    "county": "Erie County",
    "cwa": "CLE",
    "ugc_codes": "[\"PAZ001\",\"PAC049\"]",
    "office_code": "16507",
    "observation_station": "KERI"
  },
  {
    "name": "Downtown Toledo",
    "city": "Toledo",
    "state": "OH",
    "latitude": 41.6639,
    "longitude": -83.5552,
    "county": "Lucas County",
    "cwa": "CLE",
    "ugc_codes": "[\"OHZ003\",\"OHC095\"]",
    "office_code": "43604",
    "observation_station": "KDUH"
  },
  {
    "name": "Old Orchard Toledo",
    "city": "Toledo",
    "state": "OH",
    "latitude": 41.672,
    "longitude": -83.5832,
    "county": "Lucas County",
    "cwa": "CLE",
    "ugc_codes": "[\"OHZ003\",\"OHC095\"]",
    "office_code": "43606",
    "observation_station": "KDUH"
  },
  {
    "name": "University Circle Cleveland",
    "city": "Cleveland",
    "state": "OH",
    "latitude": 41.5088,
    "longitude": -81.6045,
    "county": "Cuyahoga County",
    "cwa": "CLE",
    "ugc_codes": "[\"OHZ011\",\"OHC035\"]",
    "office_code": "44106",
    "observation_station": "KBKL"
  },
  {
    "name": "Downtown Cleveland",
    "city": "Cleveland",
    "state": "OH",
    "latitude": 41.5051,
    "longitude": -81.6788,
    "county": "Cuyahoga County",
    "cwa": "CLE",
    "ugc_codes": "[\"OHZ011\",\"OHC035\"]",
    "office_code": "44114",
    "observation_station": "KBKL"
  },
  {
    "name": "Downtown Akron",
    "city": "Akron",
    "state": "OH",
    "latitude": 41.0814,
    "longitude": -81.519,
    "county": "Summit County",
    "cwa": "CLE",
    "ugc_codes": "[\"OHZ021\",\"OHC153\"]",
    "office_code": "44308",
    "observation_station": "KCAK"
  },
  {
    "name": "North Hill Akron",
    "city": "Akron",
    "state": "OH",
    "latitude": 41.0878,
    "longitude": -81.508,
    "county": "Summit County",
    "cwa": "CLE",
    "ugc_codes": "[\"OHZ021\",\"OHC153\"]",
    "office_code": "44311",
    "observation_station": "KCAK"
  },
  {
    "name": "Downtown Laredo",
    "city": "Laredo",
    "state": "TX",
    "latitude": 27.5036,
    "longitude": -99.5075,
    "county": "Webb County",
    "cwa": "CRP",
    "ugc_codes": "[\"TXZ239\",\"TXC479\"]",
    "office_code": "78040",
    "observation_station": "KLRD"
  },
  {
    "name": "North Laredo",
    "city": "Laredo",
    "state": "TX",
    "latitude": 27.5516,
    "longitude": -99.4916,
    "county": "Webb County",
    "cwa": "CRP",
    "ugc_codes": "[\"TXZ239\",\"TXC479\"]",
    "office_code": "78041",
    "observation_station": "KLRD"
  },
  {
    "name": "Downtown Corpus Christi",
    "city": "Corpus Christi",
    "state": "TX",
    "latitude": 27.8006,
    "longitude": -97.3964,
    "county": "Nueces County",
    "cwa": "CRP",
    "ugc_codes": "[\"TXZ343\",\"TXC355\"]",
    "office_code": "78401",
    "observation_station": "KCRP"
  },
  {
    "name": "South Side Corpus Christi",
    "city": "Corpus Christi",
    "state": "TX",
    "latitude": 27.7549,
    "longitude": -97.3814,
    "county": "Nueces County",
    "cwa": "CRP",
    "ugc_codes": "[\"TXZ343\",\"TXC355\"]",
    "office_code": "78411",
    "observation_station": "KNGP"
  },
  {
    "name": "Downtown Harrisburg",
    "city": "Harrisburg",
    "state": "PA",
    "latitude": 40.2732,
    "longitude": -76.8867,
    "county": "Dauphin County",
    "cwa": "CTP",
    "ugc_codes": "[\"PAZ057\",\"PAC043\"]",
    "office_code": "17101",
    "observation_station": "KCXY"
  },
  {
    "name": "South Harrisburg",
    "city": "Harrisburg",
    "state": "PA",
    "latitude": 40.2538,
    "longitude": -76.8728,
    "county": "Dauphin County",
    "cwa": "CTP",
    "ugc_codes": "[\"PAZ057\",\"PAC043\"]",
    "office_code": "17104",
    "observation_station": "KCXY"
  },
  {
    "name": "Downtown Lancaster",
    "city": "Lancaster",
    "state": "PA",
    "latitude": 40.0379,
    "longitude": -76.3055,
    "county": "Lancaster County",
    "cwa": "CTP",
    "ugc_codes": "[\"PAZ066\",\"PAC071\"]",
    "office_code": "17601",
    "observation_station": "KLNS"
  },
  {
    "name": "West Lancaster",
    "city": "Lancaster",
    "state": "PA",
    "latitude": 40.0274,
    "longitude": -76.3325,
    "county": "Lancaster County",
    "cwa": "CTP",
    "ugc_codes": "[\"PAZ066\",\"PAC071\"]",
    "office_code": "17603",
    "observation_station": "KLNS"
  },
  {
    "name": "Downtown Cheyenne",
    "city": "Cheyenne",
    "state": "WY",
    "latitude": 41.14,
    "longitude": -104.8202,
    "county": "Laramie County",
    "cwa": "CYS",
    "ugc_codes": "[\"WYZ118\",\"WYC021\"]",
    "office_code": "82001",
    "observation_station": "KCYS"
  },
  {
    "name": "North Cheyenne",
    "city": "Cheyenne",
    "state": "WY",
    "latitude": 41.1743,
    "longitude": -104.7742,
    "county": "Laramie County",
    "cwa": "CYS",
    "ugc_codes": "[\"WYZ118\",\"WYC021\"]",
    "office_code": "82009",
    "observation_station": "KCYS"
  },
  {
    "name": "Downtown Duluth",
    "city": "Duluth",
    "state": "MN",
    "latitude": 46.7867,
    "longitude": -92.1005,
    "county": "St. Louis County",
    "cwa": "DLH",
    "ugc_codes": "[\"MNZ037\",\"MNC137\"]",
    "office_code": "55802",
    "observation_station": "KDYT"
  },
  {
    "name": "West Duluth",
    "city": "Duluth",
    "state": "MN",
    "latitude": 46.8316,
    "longitude": -92.1606,
    "county": "St. Louis County",
    "cwa": "DLH",
    "ugc_codes": "[\"MNZ037\",\"MNC137\"]",
    "office_code": "55811",
    "observation_station": "KDLH"
  },
  {
    "name": "Downtown Des Moines",
    "city": "Des Moines",
    "state": "IA",
    "latitude": 41.5868,
    "longitude": -93.625,
    "county": "Polk County",
    "cwa": "DMX",
    "ugc_codes": "[\"IAZ060\",\"IAC153\"]",
    "office_code": "50309",
    "observation_station": "KDSM"
  },
  {
    "name": "South of Grand Des Moines",
    "city": "Des Moines",
    "state": "IA",
    "latitude": 41.5834,
    "longitude": -93.65,
    "county": "Polk County",
    "cwa": "DMX",
    "ugc_codes": "[\"IAZ060\",\"IAC153\"]",
    "office_code": "50312",
    "observation_station": "KDSM"
  },
  {
    "name": "Downtown Ann Arbor",
    "city": "Ann Arbor",
    "state": "MI",
    "latitude": 42.2808,
    "longitude": -83.743,
    "county": "Washtenaw County",
    "cwa": "DTX",
    "ugc_codes": "[\"MIZ075\",\"MIC161\"]",
    "office_code": "48104",
    "observation_station": "KARB"
  },
  {
    "name": "South Ann Arbor",
    "city": "Ann Arbor",
    "state": "MI",
    "latitude": 42.2404,
    "longitude": -83.7377,
    "county": "Washtenaw County",
    "cwa": "DTX",
    "ugc_codes": "[\"MIZ075\",\"MIC161\"]",
    "office_code": "48108",
    "observation_station": "KARB"
  },
  {
    "name": "Midtown Detroit",
    "city": "Detroit",
    "state": "MI",
    "latitude": 42.3584,
    "longitude": -83.0587,
    "county": "Wayne County",
    "cwa": "DTX",
    "ugc_codes": "[\"MIZ076\",\"MIC163\"]",
    "office_code": "48201",
    "observation_station": "KDET"
  },
  {
    "name": "Downtown Detroit",
    "city": "Detroit",
    "state": "MI",
    "latitude": 42.3314,
    "longitude": -83.0458,
    "county": "Wayne County",
    "cwa": "DTX",
    "ugc_codes": "[\"MIZ076\",\"MIC163\"]",
    "office_code": "48226",
    "observation_station": "KDET"
  },
  {
    "name": "Downtown Cedar Rapids",
    "city": "Cedar Rapids",
    "state": "IA",
    "latitude": 41.9779,
    "longitude": -91.6656,
    "county": "Linn County",
    "cwa": "DVN",
    "ugc_codes": "[\"IAZ052\",\"IAC113\"]",
    "office_code": "52401",
    "observation_station": "KCID"
  },
  {
    "name": "Northeast Cedar Rapids",
    "city": "Cedar Rapids",
    "state": "IA",
    "latitude": 42.0142,
    "longitude": -91.6486,
    "county": "Linn County",
    "cwa": "DVN",
    "ugc_codes": "[\"IAZ052\",\"IAC113\"]",
    "office_code": "52402",
    "observation_station": "KCID"
  },
  {
    "name": "Downtown Kansas City",
    "city": "Kansas City",
    "state": "MO",
    "latitude": 39.1044,
    "longitude": -94.5741,
    "county": "Jackson County",
    "cwa": "EAX",
    "ugc_codes": "[\"MOZ037\",\"MOC095\"]",
    "office_code": "64106",
    "observation_station": "KMKC"
  },
  {
    "name": "Crossroads Kansas City",
    "city": "Kansas City",
    "state": "MO",
    "latitude": 39.092,
    "longitude": -94.5791,
    "county": "Jackson County",
    "cwa": "EAX",
    "ugc_codes": "[\"MOZ037\",\"MOC095\"]",
    "office_code": "64108",
    "observation_station": "KMKC"
  },
  {
    "name": "Downtown El Paso",
    "city": "El Paso",
    "state": "TX",
    "latitude": 31.7619,
    "longitude": -106.485,
    "county": "El Paso County",
    "cwa": "EPZ",
    "ugc_codes": "[\"TXZ418\",\"TXC141\"]",
    "office_code": "79901",
    "observation_station": "KELP"
  },
  {
    "name": "East El Paso",
    "city": "El Paso",
    "state": "TX",
    "latitude": 31.77,
    "longitude": -106.3753,
    "county": "El Paso County",
    "cwa": "EPZ",
    "ugc_codes": "[\"TXZ419\",\"TXC141\"]",
    "office_code": "79925",
    "observation_station": "KELP"
  },
  {
    "name": "Downtown San Antonio",
    "city": "San Antonio",
    "state": "TX",
    "latitude": 29.4241,
    "longitude": -98.4936,
    "county": "Bexar County",
    "cwa": "EWX",
    "ugc_codes": "[\"TXZ205\",\"TXC029\"]",
    "office_code": "78205",
    "observation_station": "KSKF"
  },
  {
    "name": "Medical Center San Antonio",
    "city": "San Antonio",
    "state": "TX",
    "latitude": 29.5037,
    "longitude": -98.5578,
    "county": "Bexar County",
    "cwa": "EWX",
    "ugc_codes": "[\"TXZ205\",\"TXC029\"]",
    "office_code": "78229",
    "observation_station": "KSAT"
  },
  {
    "name": "Downtown Austin",
    "city": "Austin",
    "state": "TX",
    "latitude": 30.2672,
    "longitude": -97.7431,
    "county": "Travis County",
    "cwa": "EWX",
    "ugc_codes": "[\"TXZ192\",\"TXC453\"]",
    "office_code": "78701",
    "observation_station": "KATT"
  },
  {
    "name": "South Austin",
    "city": "Austin",
    "state": "TX",
    "latitude": 30.2117,
    "longitude": -97.7773,
    "county": "Travis County",
    "cwa": "EWX",
    "ugc_codes": "[\"TXZ192\",\"TXC453\"]",
    "office_code": "78745",
    "observation_station": "KAUS"
  },
  {
    "name": "Downtown Atlanta",
    "city": "Atlanta",
    "state": "GA",
    "latitude": 33.749,
    "longitude": -84.388,
    "county": "Fulton County",
    "cwa": "FFC",
    "ugc_codes": "[\"GAZ033\",\"GAC121\"]",
    "office_code": "30303",
    "observation_station": "KATL"
  },
  {
    "name": "Buckhead Atlanta",
    "city": "Atlanta",
    "state": "GA",
    "latitude": 33.8226,
    "longitude": -84.3582,
    "county": "Fulton County",
    "cwa": "FFC",
    "ugc_codes": "[\"GAZ033\",\"GAC121\"]",
    "office_code": "30324",
    "observation_station": "KPDK"
  },
  {
    "name": "Downtown Fargo",
    "city": "Fargo",
    "state": "ND",
    "latitude": 46.8772,
    "longitude": -96.7898,
    "county": "Cass County",
    "cwa": "FGF",
    "ugc_codes": "[\"NDZ039\",\"NDC017\"]",
    "office_code": "58102",
    "observation_station": "KFAR"
  },
  {
    "name": "South Fargo",
    "city": "Fargo",
    "state": "ND",
    "latitude": 46.8516,
    "longitude": -96.7898,
    "county": "Cass County",
    "cwa": "FGF",
    "ugc_codes": "[\"NDZ039\",\"NDC017\"]",
    "office_code": "58103",
    "observation_station": "KFAR"
  },
  {
    "name": "Downtown Sioux Falls",
    "city": "Sioux Falls",
    "state": "SD",
    "latitude": 43.5473,
    "longitude": -96.7283,
    "county": "Minnehaha County",
    "cwa": "FSD",
    "ugc_codes": "[\"SDZ062\",\"SDC099\"]",
    "office_code": "57104",
    "observation_station": "KFSD"
  },
  {
    "name": "South Sioux Falls",
    "city": "Sioux Falls",
    "state": "SD",
    "latitude": 43.4994,
    "longitude": -96.7032,
    "county": "Lincoln County",
    "cwa": "FSD",
    "ugc_codes": "[\"SDZ067\",\"SDC083\"]",
    "office_code": "57108",
    "observation_station": "KFSD"
  },
  {
    "name": "Downtown Dallas",
    "city": "Dallas",
    "state": "TX",
    "latitude": 32.7767,
    "longitude": -96.797,
    "county": "Dallas County",
    "cwa": "FWD",
    "ugc_codes": "[\"TXZ119\",\"TXC113\"]",
    "office_code": "75201",
    "observation_station": "KDAL"
  },
  {
    "name": "Downtown Fort Worth",
    "city": "Fort Worth",
    "state": "TX",
    "latitude": 32.7555,
    "longitude": -97.3308,
    "county": "Tarrant County",
    "cwa": "FWD",
    "ugc_codes": "[\"TXZ118\",\"TXC439\"]",
    "office_code": "76102",
    "observation_station": "KFTW"
  },
  {
    "name": "Downtown Green Bay",
    "city": "Green Bay",
    "state": "WI",
    "latitude": 44.5133,
    "longitude": -88.0133,
    "county": "Brown County",
    "cwa": "GRB",
    "ugc_codes": "[\"WIZ039\",\"WIC009\"]",
    "office_code": "54301",
    "observation_station": "KGRB"
  },
  {
    "name": "West Green Bay",
    "city": "Green Bay",
    "state": "WI",
    "latitude": 44.5218,
    "longitude": -88.0503,
    "county": "Brown County",
    "cwa": "GRB",
    "ugc_codes": "[\"WIZ039\",\"WIC009\"]",
    "office_code": "54304",
    "observation_station": "KGRB"
  },
  {
    "name": "East Lansing",
    "city": "Lansing",
    "state": "MI",
    "latitude": 42.7325,
    "longitude": -84.5122,
    "county": "Ingham County",
    "cwa": "GRR",
    "ugc_codes": "[\"MIZ067\",\"MIC065\"]",
    "office_code": "48912",
    "observation_station": "KLAN"
  },
  {
    "name": "Downtown Lansing",
    "city": "Lansing",
    "state": "MI",
    "latitude": 42.7325,
    "longitude": -84.5555,
    "county": "Ingham County",
    "cwa": "GRR",
    "ugc_codes": "[\"MIZ067\",\"MIC065\"]",
    "office_code": "48933",
    "observation_station": "KLAN"
  },
  {
    "name": "Downtown Kalamazoo",
    "city": "Kalamazoo",
    "state": "MI",
    "latitude": 42.2917,
    "longitude": -85.5872,
    "county": "Kalamazoo County",
    "cwa": "GRR",
    "ugc_codes": "[\"MIZ072\",\"MIC077\"]",
    "office_code": "49007",
    "observation_station": "KAZO"
  },
  {
    "name": "West Kalamazoo",
    "city": "Kalamazoo",
    "state": "MI",
    "latitude": 42.2823,
    "longitude": -85.6162,
    "county": "Kalamazoo County",
    "cwa": "GRR",
    "ugc_codes": "[\"MIZ072\",\"MIC077\"]",
    "office_code": "49008",
    "observation_station": "KAZO"
  },
  {
    "name": "Downtown Grand Rapids",
    "city": "Grand Rapids",
    "state": "MI",
    "latitude": 42.9634,
    "longitude": -85.6681,
    "county": "Kent County",
    "cwa": "GRR",
    "ugc_codes": "[\"MIZ057\",\"MIC081\"]",
    "office_code": "49503",
    "observation_station": "KGRR"
  },
  {
    "name": "East Grand Rapids",
    "city": "Grand Rapids",
    "state": "MI",
    "latitude": 42.9451,
    "longitude": -85.6241,
    "county": "Kent County",
    "cwa": "GRR",
    "ugc_codes": "[\"MIZ057\",\"MIC081\"]",
    "office_code": "49506",
    "observation_station": "KGRR"
  },
  {
    "name": "Uptown Charlotte",
    "city": "Charlotte",
    "state": "NC",
    "latitude": 35.2271,
    "longitude": -80.8431,
    "county": "Mecklenburg County",
    "cwa": "GSP",
    "ugc_codes": "[\"NCZ071\",\"NCC119\"]",
    "office_code": "28202",
    "observation_station": "KCLT"
  },
  {
    "name": "Plaza Midwood Charlotte",
    "city": "Charlotte",
    "state": "NC",
    "latitude": 35.2215,
    "longitude": -80.8089,
    "county": "Mecklenburg County",
    "cwa": "GSP",
    "ugc_codes": "[\"NCZ071\",\"NCC119\"]",
    "office_code": "28205",
    "observation_station": "KCLT"
  },
  {
    "name": "Downtown Asheville",
    "city": "Asheville",
    "state": "NC",
    "latitude": 35.5951,
    "longitude": -82.5515,
    "county": "Buncombe County",
    "cwa": "GSP",
    "ugc_codes": "[\"NCZ053\",\"NCC021\"]",
    "office_code": "28801",
    "observation_station": "KAVL"
  },
  {
    "name": "West Asheville",
    "city": "Asheville",
    "state": "NC",
    "latitude": 35.5775,
    "longitude": -82.594,
    "county": "Buncombe County",
    "cwa": "GSP",
    "ugc_codes": "[\"NCZ053\",\"NCC021\"]",
    "office_code": "28806",
    "observation_station": "KAVL"
  },
  {
    "name": "Downtown Greenville SC",
    "city": "Greenville",
    "state": "SC",
    "latitude": 34.8526,
    "longitude": -82.394,
    "county": "Greenville County",
    "cwa": "GSP",
    "ugc_codes": "[\"SCZ106\",\"SCC045\"]",
    "office_code": "29601",
    "observation_station": "KGMU"
  },
  {
    "name": "East Greenville SC",
    "city": "Greenville",
    "state": "SC",
    "latitude": 34.8403,
    "longitude": -82.346,
    "county": "Greenville County",
    "cwa": "GSP",
    "ugc_codes": "[\"SCZ106\",\"SCC045\"]",
    "office_code": "29607",
    "observation_station": "KGMU"
  },
  {
    "name": "Downtown Manchester NH",
    "city": "Manchester",
    "state": "NH",
    "latitude": 42.9956,
    "longitude": -71.4548,
    "county": "Hillsborough County",
    "cwa": "GYX",
    "ugc_codes": "[\"NHZ012\",\"NHC011\"]",
    "office_code": "03101",
    "observation_station": "KMHT"
  },
  {
    "name": "East Manchester NH",
    "city": "Manchester",
    "state": "NH",
    "latitude": 43.0009,
    "longitude": -71.4288,
    "county": "Hillsborough County",
    "cwa": "GYX",
    "ugc_codes": "[\"NHZ012\",\"NHC011\"]",
    "office_code": "03104",
    "observation_station": "KMHT"
  },
  {
    "name": "Downtown Portland ME",
    "city": "Portland",
    "state": "ME",
    "latitude": 43.6591,
    "longitude": -70.2568,
    "county": "Cumberland County",
    "cwa": "GYX",
    "ugc_codes": "[\"MEZ024\",\"MEC005\"]",
    "office_code": "04101",
    "observation_station": "KPWM"
  },
  {
    "name": "West Portland ME",
    "city": "Portland",
    "state": "ME",
    "latitude": 43.6601,
    "longitude": -70.2838,
    "county": "Cumberland County",
    "cwa": "GYX",
    "ugc_codes": "[\"MEZ024\",\"MEC005\"]",
    "office_code": "04102",
    "observation_station": "KPWM"
  },
  {
    "name": "Downtown Honolulu",
    "city": "Honolulu",
    "state": "HI",
    "latitude": 21.3069,
    "longitude": -157.8583,
    "county": "Honolulu County",
    "cwa": "HFO",
    "ugc_codes": "[\"HIZ036\",\"HIC003\"]",
    "office_code": "96813",
    "observation_station": "PHNL"
  },
  {
    "name": "Waikiki",
    "city": "Honolulu",
    "state": "HI",
    "latitude": 21.2793,
    "longitude": -157.829,
    "county": "Honolulu County",
    "cwa": "HFO",
    "ugc_codes": "[\"HIZ033\",\"HIC003\"]",
    "office_code": "96815",
    "observation_station": "PHNL"
  },
  {
    "name": "Downtown Houston",
    "city": "Houston",
    "state": "TX",
    "latitude": 29.753,
    "longitude": -95.3677,
    "county": "Harris County",
    "cwa": "HGX",
    "ugc_codes": "[\"TXZ213\",\"TXC201\"]",
    "office_code": "77002",
    "observation_station": "KHOU"
  },
  {
    "name": "Texas Medical Center",
    "city": "Houston",
    "state": "TX",
    "latitude": 29.7077,
    "longitude": -95.4013,
    "county": "Harris County",
    "cwa": "HGX",
    "ugc_codes": "[\"TXZ213\",\"TXC201\"]",
    "office_code": "77030",
    "observation_station": "KHOU"
  },
  {
    "name": "Downtown Bakersfield",
    "city": "Bakersfield",
    "state": "CA",
    "latitude": 35.3733,
    "longitude": -119.0187,
    "county": "Kern County",
    "cwa": "HNX",
    "ugc_codes": "[\"CAZ314\",\"CAC029\"]",
    "office_code": "93301",
    "observation_station": "KBFL"
  },
  {
    "name": "South Bakersfield",
    "city": "Bakersfield",
    "state": "CA",
    "latitude": 35.3495,
    "longitude": -119.0187,
    "county": "Kern County",
    "cwa": "HNX",
    "ugc_codes": "[\"CAZ314\",\"CAC029\"]",
    "office_code": "93304",
    "observation_station": "CSBFL"
  },
  {
    "name": "Downtown Fresno",
    "city": "Fresno",
    "state": "CA",
    "latitude": 36.7378,
    "longitude": -119.7871,
    "county": "Fresno County",
    "cwa": "HNX",
    "ugc_codes": "[\"CAZ307\",\"CAC019\"]",
    "office_code": "93721",
    "observation_station": "KFAT"
  },
  {
    "name": "Northeast Fresno",
    "city": "Fresno",
    "state": "CA",
    "latitude": 36.791,
    "longitude": -119.7641,
    "county": "Fresno County",
    "cwa": "HNX",
    "ugc_codes": "[\"CAZ307\",\"CAC019\"]",
    "office_code": "93726",
    "observation_station": "KFAT"
  },
  {
    "name": "Downtown Huntsville",
    "city": "Huntsville",
    "state": "AL",
    "latitude": 34.7304,
    "longitude": -86.5861,
    "county": "Madison County",
    "cwa": "HUN",
    "ugc_codes": "[\"ALZ006\",\"ALC089\"]",
    "office_code": "35801",
    "observation_station": "KMDQ"
  },
  {
    "name": "South Huntsville",
    "city": "Huntsville",
    "state": "AL",
    "latitude": 34.7041,
    "longitude": -86.6029,
    "county": "Madison County",
    "cwa": "HUN",
    "ugc_codes": "[\"ALZ006\",\"ALC089\"]",
    "office_code": "35805",
    "observation_station": "KHSV"
  },
  {
    "name": "Downtown Wichita",
    "city": "Wichita",
    "state": "KS",
    "latitude": 37.6872,
    "longitude": -97.3301,
    "county": "Sedgwick County",
    "cwa": "ICT",
    "ugc_codes": "[\"KSZ083\",\"KSC173\"]",
    "office_code": "67202",
    "observation_station": "KICT"
  },
  {
    "name": "College Hill Wichita",
    "city": "Wichita",
    "state": "KS",
    "latitude": 37.6882,
    "longitude": -97.2959,
    "county": "Sedgwick County",
    "cwa": "ICT",
    "ugc_codes": "[\"KSZ083\",\"KSC173\"]",
    "office_code": "67208",
    "observation_station": "KAAO"
  },
  {
    "name": "Downtown Wilmington NC",
    "city": "Wilmington",
    "state": "NC",
    "latitude": 34.2257,
    "longitude": -77.9447,
    "county": "New Hanover County",
    "cwa": "ILM",
    "ugc_codes": "[\"NCZ107\",\"NCC129\"]",
    "office_code": "28401",
    "observation_station": "KILM"
  },
  {
    "name": "North Wilmington NC",
    "city": "Wilmington",
    "state": "NC",
    "latitude": 34.2602,
    "longitude": -77.9037,
    "county": "New Hanover County",
    "cwa": "ILM",
    "ugc_codes": "[\"NCZ107\",\"NCC129\"]",
    "office_code": "28405",
    "observation_station": "KILM"
  },
  {
    "name": "University District Columbus",
    "city": "Columbus",
    "state": "OH",
    "latitude": 39.9982,
    "longitude": -82.9938,
    "county": "Franklin County",
    "cwa": "ILN",
    "ugc_codes": "[\"OHZ055\",\"OHC049\"]",
    "office_code": "43202",
    "observation_station": "KCMH"
  },
  {
    "name": "Downtown Columbus",
    "city": "Columbus",
    "state": "OH",
    "latitude": 39.9612,
    "longitude": -83.0007,
    "county": "Franklin County",
    "cwa": "ILN",
    "ugc_codes": "[\"OHZ055\",\"OHC049\"]",
    "office_code": "43215",
    "observation_station": "KCMH"
  },
  {
    "name": "Downtown Cincinnati",
    "city": "Cincinnati",
    "state": "OH",
    "latitude": 39.1031,
    "longitude": -84.512,
    "county": "Hamilton County",
    "cwa": "ILN",
    "ugc_codes": "[\"OHZ077\",\"OHC061\"]",
    "office_code": "45202",
    "observation_station": "KLUK"
  },
  {
    "name": "Clifton Cincinnati",
    "city": "Cincinnati",
    "state": "OH",
    "latitude": 39.126,
    "longitude": -84.5199,
    "county": "Hamilton County",
    "cwa": "ILN",
    "ugc_codes": "[\"OHZ077\",\"OHC061\"]",
    "office_code": "45219",
    "observation_station": "KLUK"
  },
  {
    "name": "Downtown Dayton",
    "city": "Dayton",
    "state": "OH",
    "latitude": 39.7589,
    "longitude": -84.1916,
    "county": "Montgomery County",
    "cwa": "ILN",
    "ugc_codes": "[\"OHZ061\",\"OHC113\"]",
    "office_code": "45402",
    "observation_station": "KFFO"
  },
  {
    "name": "East Dayton",
    "city": "Dayton",
    "state": "OH",
    "latitude": 39.7502,
    "longitude": -84.1558,
    "county": "Montgomery County",
    "cwa": "ILN",
    "ugc_codes": "[\"OHZ061\",\"OHC113\"]",
    "office_code": "45410",
    "observation_station": "KFFO"
  },
  {
    "name": "Downtown Peoria",
    "city": "Peoria",
    "state": "IL",
    "latitude": 40.6936,
    "longitude": -89.589,
    "county": "Peoria County",
    "cwa": "ILX",
    "ugc_codes": "[\"ILZ029\",\"ILC143\"]",
    "office_code": "61602",
    "observation_station": "KPIA"
  },
  {
    "name": "West Peoria",
    "city": "Peoria",
    "state": "IL",
    "latitude": 40.6936,
    "longitude": -89.613,
    "county": "Peoria County",
    "cwa": "ILX",
    "ugc_codes": "[\"ILZ029\",\"ILC143\"]",
    "office_code": "61604",
    "observation_station": "KPIA"
  },
  {
    "name": "Downtown Indianapolis",
    "city": "Indianapolis",
    "state": "IN",
    "latitude": 39.7684,
    "longitude": -86.1581,
    "county": "Marion County",
    "cwa": "IND",
    "ugc_codes": "[\"INZ047\",\"INC097\"]",
    "office_code": "46204",
    "observation_station": "KIND"
  },
  {
    "name": "Broad Ripple Indianapolis",
    "city": "Indianapolis",
    "state": "IN",
    "latitude": 39.8613,
    "longitude": -86.1325,
    "county": "Marion County",
    "cwa": "IND",
    "ugc_codes": "[\"INZ047\",\"INC097\"]",
    "office_code": "46220",
    "observation_station": "KEYE"
  },
  {
    "name": "Downtown South Bend",
    "city": "South Bend",
    "state": "IN",
    "latitude": 41.6764,
    "longitude": -86.252,
    "county": "St. Joseph County",
    "cwa": "IWX",
    "ugc_codes": "[\"INZ104\",\"INC141\"]",
    "office_code": "46601",
    "observation_station": "KSBN"
  },
  {
    "name": "East South Bend",
    "city": "South Bend",
    "state": "IN",
    "latitude": 41.6818,
    "longitude": -86.2046,
    "county": "St. Joseph County",
    "cwa": "IWX",
    "ugc_codes": "[\"INZ104\",\"INC141\"]",
    "office_code": "46615",
    "observation_station": "KSBN"
  },
  {
    "name": "Downtown Fort Wayne",
    "city": "Fort Wayne",
    "state": "IN",
    "latitude": 41.0793,
    "longitude": -85.1394,
    "county": "Allen County",
    "cwa": "IWX",
    "ugc_codes": "[\"INZ018\",\"INC003\"]",
    "office_code": "46802",
    "observation_station": "KFWA"
  },
  {
    "name": "South Fort Wayne",
    "city": "Fort Wayne",
    "state": "IN",
    "latitude": 41.0642,
    "longitude": -85.1266,
    "county": "Allen County",
    "cwa": "IWX",
    "ugc_codes": "[\"INZ018\",\"INC003\"]",
    "office_code": "46806",
    "observation_station": "KFWA"
  },
  {
    "name": "Downtown Jackson MS",
    "city": "Jackson",
    "state": "MS",
    "latitude": 32.2988,
    "longitude": -90.1848,
    "county": "Hinds County",
    "cwa": "JAN",
    "ugc_codes": "[\"MSZ048\",\"MSC049\"]",
    "office_code": "39201",
    "observation_station": "KHKS"
  },
  {
    "name": "Northeast Jackson MS",
    "city": "Jackson",
    "state": "MS",
    "latitude": 32.3396,
    "longitude": -90.1778,
    "county": "Hinds County",
    "cwa": "JAN",
    "ugc_codes": "[\"MSZ048\",\"MSC049\"]",
    "office_code": "39206",
    "observation_station": "KHKS"
  },
  {
    "name": "Downtown Jacksonville",
    "city": "Jacksonville",
    "state": "FL",
    "latitude": 30.3322,
    "longitude": -81.6557,
    "county": "Duval County",
    "cwa": "JAX",
    "ugc_codes": "[\"FLZ125\",\"FLC031\"]",
    "office_code": "32202",
    "observation_station": "KNIP"
  },
  {
    "name": "San Marco Jacksonville",
    "city": "Jacksonville",
    "state": "FL",
    "latitude": 30.3002,
    "longitude": -81.6429,
    "county": "Duval County",
    "cwa": "JAX",
    "ugc_codes": "[\"FLZ325\",\"FLC031\"]",
    "office_code": "32207",
    "observation_station": "KNIP"
  },
  {
    "name": "Downtown Gainesville",
    "city": "Gainesville",
    "state": "FL",
    "latitude": 29.652,
    "longitude": -82.325,
    "county": "Alachua County",
    "cwa": "JAX",
    "ugc_codes": "[\"FLZ136\",\"FLC001\"]",
    "office_code": "32601",
    "observation_station": "KGNV"
  },
  {
    "name": "West Gainesville",
    "city": "Gainesville",
    "state": "FL",
    "latitude": 29.6459,
    "longitude": -82.389,
    "county": "Alachua County",
    "cwa": "JAX",
    "ugc_codes": "[\"FLZ136\",\"FLC001\"]",
    "office_code": "32607",
    "observation_station": "KGNV"
  },
  {
    "name": "Downtown Beaumont",
    "city": "Beaumont",
    "state": "TX",
    "latitude": 30.0802,
    "longitude": -94.1266,
    "county": "Jefferson County",
    "cwa": "LCH",
    "ugc_codes": "[\"TXZ615\",\"TXC245\"]",
    "office_code": "77701",
    "observation_station": "KBPT"
  },
  {
    "name": "West Beaumont",
    "city": "Beaumont",
    "state": "TX",
    "latitude": 30.0802,
    "longitude": -94.1626,
    "county": "Jefferson County",
    "cwa": "LCH",
    "ugc_codes": "[\"TXZ515\",\"TXC245\"]",
    "office_code": "77706",
    "observation_station": "KBPT"
  },
  {
    "name": "French Quarter New Orleans",
    "city": "New Orleans",
    "state": "LA",
    "latitude": 29.9584,
    "longitude": -90.0739,
    "county": "Orleans Parish",
    "cwa": "LIX",
    "ugc_codes": "[\"LAZ077\",\"LAC071\"]",
    "office_code": "70112",
    "observation_station": "KNEW"
  },
  {
    "name": "Marigny New Orleans",
    "city": "New Orleans",
    "state": "LA",
    "latitude": 29.967,
    "longitude": -90.0587,
    "county": "Orleans Parish",
    "cwa": "LIX",
    "ugc_codes": "[\"LAZ077\",\"LAC071\"]",
    "office_code": "70116",
    "observation_station": "KNEW"
  },
  {
    "name": "Downtown Baton Rouge",
    "city": "Baton Rouge",
    "state": "LA",
    "latitude": 30.4507,
    "longitude": -91.1874,
    "county": "East Baton Rouge Parish",
    "cwa": "LIX",
    "ugc_codes": "[\"LAZ048\",\"LAC033\"]",
    "office_code": "70801",
    "observation_station": "KBTR"
  },
  {
    "name": "Southdowns Baton Rouge",
    "city": "Baton Rouge",
    "state": "LA",
    "latitude": 30.4018,
    "longitude": -91.1411,
    "county": "East Baton Rouge Parish",
    "cwa": "LIX",
    "ugc_codes": "[\"LAZ048\",\"LAC033\"]",
    "office_code": "70808",
    "observation_station": "KBTR"
  },
  {
    "name": "Downtown Louisville",
    "city": "Louisville",
    "state": "KY",
    "latitude": 38.2527,
    "longitude": -85.7585,
    "county": "Jefferson County",
    "cwa": "LMK",
    "ugc_codes": "[\"KYZ030\",\"KYC111\"]",
    "office_code": "40202",
    "observation_station": "KLOU"
  },
  {
    "name": "Highlands Louisville",
    "city": "Louisville",
    "state": "KY",
    "latitude": 38.2328,
    "longitude": -85.7192,
    "county": "Jefferson County",
    "cwa": "LMK",
    "ugc_codes": "[\"KYZ030\",\"KYC111\"]",
    "office_code": "40205",
    "observation_station": "KLOU"
  },
  {
    "name": "Chevy Chase Lexington",
    "city": "Lexington",
    "state": "KY",
    "latitude": 38.0406,
    "longitude": -84.4783,
    "county": "Fayette County",
    "cwa": "LMK",
    "ugc_codes": "[\"KYZ041\",\"KYC067\"]",
    "office_code": "40502",
    "observation_station": "KLEX"
  },
  {
    "name": "Downtown Lexington",
    "city": "Lexington",
    "state": "KY",
    "latitude": 38.0406,
    "longitude": -84.5037,
    "county": "Fayette County",
    "cwa": "LMK",
    "ugc_codes": "[\"KYZ041\",\"KYC067\"]",
    "office_code": "40507",
    "observation_station": "KLEX"
  },
  {
    "name": "Chicago Loop",
    "city": "Chicago",
    "state": "IL",
    "latitude": 41.8827,
    "longitude": -87.6233,
    "county": "Cook County",
    "cwa": "LOT",
    "ugc_codes": "[\"ILZ104\",\"ILC031\"]",
    "office_code": "60601",
    "observation_station": "KMDW"
  },
  {
    "name": "Lincoln Park Chicago",
    "city": "Chicago",
    "state": "IL",
    "latitude": 41.9235,
    "longitude": -87.6441,
    "county": "Cook County",
    "cwa": "LOT",
    "ugc_codes": "[\"ILZ104\",\"ILC031\"]",
    "office_code": "60614",
    "observation_station": "KMDW"
  },
  {
    "name": "Downtown Los Angeles",
    "city": "Los Angeles",
    "state": "CA",
    "latitude": 34.0522,
    "longitude": -118.2437,
    "county": "Los Angeles County",
    "cwa": "LOX",
    "ugc_codes": "[\"CAZ368\",\"CAC037\"]",
    "office_code": "90012",
    "observation_station": "KHHR"
  },
  {
    "name": "Hollywood",
    "city": "Los Angeles",
    "state": "CA",
    "latitude": 34.1016,
    "longitude": -118.3267,
    "county": "Los Angeles County",
    "cwa": "LOX",
    "ugc_codes": "[\"CAZ368\",\"CAC037\"]",
    "office_code": "90028",
    "observation_station": "KBUR"
  },
  {
    "name": "Downtown Santa Barbara",
    "city": "Santa Barbara",
    "state": "CA",
    "latitude": 34.4208,
    "longitude": -119.6982,
    "county": "Santa Barbara County",
    "cwa": "LOX",
    "ugc_codes": "[\"CAZ350\",\"CAC083\"]",
    "office_code": "93101",
    "observation_station": "MOIC1"
  },
  {
    "name": "East Santa Barbara",
    "city": "Santa Barbara",
    "state": "CA",
    "latitude": 34.4261,
    "longitude": -119.6772,
    "county": "Santa Barbara County",
    "cwa": "LOX",
    "ugc_codes": "[\"CAZ350\",\"CAC083\"]",
    "office_code": "93103",
    "observation_station": "MOIC1"
  },
  {
    "name": "Downtown St Louis",
    "city": "Saint Louis",
    "state": "MO",
    "latitude": 38.627,
    "longitude": -90.1994,
    "county": "St. Louis city",
    "cwa": "LSX",
    "ugc_codes": "[\"MOZ064\",\"MOC510\"]",
    "office_code": "63101",
    "observation_station": "KCPS"
  },
  {
    "name": "South St Louis",
    "city": "Saint Louis",
    "state": "MO",
    "latitude": 38.6085,
    "longitude": -90.2784,
    "county": "St. Louis city",
    "cwa": "LSX",
    "ugc_codes": "[\"MOZ064\",\"MOC510\"]",
    "office_code": "63139",
    "observation_station": "KCPS"
  },
  {
    "name": "Downtown Columbia MO",
    "city": "Columbia",
    "state": "MO",
    "latitude": 38.9517,
    "longitude": -92.3341,
    "county": "Boone County",
    "cwa": "LSX",
    "ugc_codes": "[\"MOZ041\",\"MOC019\"]",
    "office_code": "65201",
    "observation_station": "KCOU"
  },
  {
    "name": "South Columbia MO",
    "city": "Columbia",
    "state": "MO",
    "latitude": 38.9332,
    "longitude": -92.3531,
    "county": "Boone County",
    "cwa": "LSX",
    "ugc_codes": "[\"MOZ041\",\"MOC019\"]",
    "office_code": "65203",
    "observation_station": "KCOU"
  },
  {
    "name": "Downtown Lubbock",
    "city": "Lubbock",
    "state": "TX",
    "latitude": 33.5779,
    "longitude": -101.8552,
    "county": "Lubbock County",
    "cwa": "LUB",
    "ugc_codes": "[\"TXZ035\",\"TXC303\"]",
    "office_code": "79401",
    "observation_station": "KLBB"
  },
  {
    "name": "South Lubbock",
    "city": "Lubbock",
    "state": "TX",
    "latitude": 33.5571,
    "longitude": -101.8782,
    "county": "Lubbock County",
    "cwa": "LUB",
    "ugc_codes": "[\"TXZ035\",\"TXC303\"]",
    "office_code": "79410",
    "observation_station": "KLBB"
  },
  {
    "name": "Downtown Washington",
    "city": "Washington",
    "state": "DC",
    "latitude": 38.9101,
    "longitude": -77.0181,
    "county": "District of Columbia",
    "cwa": "LWX",
    "ugc_codes": "[\"DCZ001\",\"DCC001\"]",
    "office_code": "20001",
    "observation_station": "KDCA"
  },
  {
    "name": "Foggy Bottom",
    "city": "Washington",
    "state": "DC",
    "latitude": 38.8994,
    "longitude": -77.0533,
    "county": "District of Columbia",
    "cwa": "LWX",
    "ugc_codes": "[\"DCZ001\",\"DCC001\"]",
    "office_code": "20037",
    "observation_station": "KDCA"
  },
  {
    "name": "Downtown Baltimore",
    "city": "Baltimore",
    "state": "MD",
    "latitude": 39.2904,
    "longitude": -76.6122,
    "county": "Baltimore city",
    "cwa": "LWX",
    "ugc_codes": "[\"MDZ011\",\"MDC510\"]",
    "office_code": "21201",
    "observation_station": "KDMH"
  },
  {
    "name": "Canton Baltimore",
    "city": "Baltimore",
    "state": "MD",
    "latitude": 39.2762,
    "longitude": -76.5734,
    "county": "Baltimore city",
    "cwa": "LWX",
    "ugc_codes": "[\"MDZ011\",\"MDC510\"]",
    "office_code": "21224",
    "observation_station": "KDMH"
  },
  {
    "name": "Downtown Little Rock",
    "city": "Little Rock",
    "state": "AR",
    "latitude": 34.7465,
    "longitude": -92.2896,
    "county": "Pulaski County",
    "cwa": "LZK",
    "ugc_codes": "[\"ARZ044\",\"ARC119\"]",
    "office_code": "72201",
    "observation_station": "KLIT"
  },
  {
    "name": "Hillcrest Little Rock",
    "city": "Little Rock",
    "state": "AR",
    "latitude": 34.75,
    "longitude": -92.3246,
    "county": "Pulaski County",
    "cwa": "LZK",
    "ugc_codes": "[\"ARZ044\",\"ARC119\"]",
    "office_code": "72205",
    "observation_station": "KLIT"
  },
  {
    "name": "Downtown Memphis",
    "city": "Memphis",
    "state": "TN",
    "latitude": 35.1495,
    "longitude": -90.049,
    "county": "Shelby County",
    "cwa": "MEG",
    "ugc_codes": "[\"TNZ088\",\"TNC157\"]",
    "office_code": "38103",
    "observation_station": "KMEM"
  },
  {
    "name": "East Memphis",
    "city": "Memphis",
    "state": "TN",
    "latitude": 35.1189,
    "longitude": -89.9568,
    "county": "Shelby County",
    "cwa": "MEG",
    "ugc_codes": "[\"TNZ088\",\"TNC157\"]",
    "office_code": "38117",
    "observation_station": "KMEM"
  },
  {
    "name": "Downtown Miami",
    "city": "Miami",
    "state": "FL",
    "latitude": 25.7617,
    "longitude": -80.1918,
    "county": "Miami-Dade County",
    "cwa": "MFL",
    "ugc_codes": "[\"FLZ173\",\"FLC086\"]",
    "office_code": "33101",
    "observation_station": "KMIA"
  },
  {
    "name": "Fort Lauderdale",
    "city": "Fort Lauderdale",
    "state": "FL",
    "latitude": 26.1224,
    "longitude": -80.1374,
    "county": "Broward County",
    "cwa": "MFL",
    "ugc_codes": "[\"FLZ172\",\"FLC011\"]",
    "office_code": "33301",
    "observation_station": "KFLL"
  },
  {
    "name": "Downtown Naples",
    "city": "Naples",
    "state": "FL",
    "latitude": 26.142,
    "longitude": -81.7948,
    "county": "Collier County",
    "cwa": "MFL",
    "ugc_codes": "[\"FLZ069\",\"FLC021\"]",
    "office_code": "34102",
    "observation_station": "KAPF"
  },
  {
    "name": "North Naples",
    "city": "Naples",
    "state": "FL",
    "latitude": 26.1974,
    "longitude": -81.7968,
    "county": "Collier County",
    "cwa": "MFL",
    "ugc_codes": "[\"FLZ069\",\"FLC021\"]",
    "office_code": "34108",
    "observation_station": "KAPF"
  },
  {
    "name": "Downtown Milwaukee",
    "city": "Milwaukee",
    "state": "WI",
    "latitude": 43.0389,
    "longitude": -87.9065,
    "county": "Milwaukee County",
    "cwa": "MKX",
    "ugc_codes": "[\"WIZ066\",\"WIC079\"]",
    "office_code": "53202",
    "observation_station": "KMKE"
  },
  {
    "name": "Shorewood Milwaukee",
    "city": "Milwaukee",
    "state": "WI",
    "latitude": 43.0779,
    "longitude": -87.8925,
    "county": "Milwaukee County",
    "cwa": "MKX",
    "ugc_codes": "[\"WIZ066\",\"WIC079\"]",
    "office_code": "53211",
    "observation_station": "KMWC"
  },
  {
    "name": "Isthmus Madison",
    "city": "Madison",
    "state": "WI",
    "latitude": 43.0731,
    "longitude": -89.3837,
    "county": "Dane County",
    "cwa": "MKX",
    "ugc_codes": "[\"WIZ063\",\"WIC025\"]",
    "office_code": "53703",
    "observation_station": "KMSN"
  },
  {
    "name": "West Madison",
    "city": "Madison",
    "state": "WI",
    "latitude": 43.0607,
    "longitude": -89.4437,
    "county": "Dane County",
    "cwa": "MKX",
    "ugc_codes": "[\"WIZ063\",\"WIC025\"]",
    "office_code": "53711",
    "observation_station": "KC29"
  },
  {
    "name": "Downtown Orlando",
    "city": "Orlando",
    "state": "FL",
    "latitude": 28.5383,
    "longitude": -81.3792,
    "county": "Orange County",
    "cwa": "MLB",
    "ugc_codes": "[\"FLZ045\",\"FLC095\"]",
    "office_code": "32801",
    "observation_station": "KORL"
  },
  {
    "name": "International Drive Orlando",
    "city": "Orlando",
    "state": "FL",
    "latitude": 28.4399,
    "longitude": -81.468,
    "county": "Orange County",
    "cwa": "MLB",
    "ugc_codes": "[\"FLZ045\",\"FLC095\"]",
    "office_code": "32819",
    "observation_station": "KMCO"
  },
  {
    "name": "Downtown Pensacola",
    "city": "Pensacola",
    "state": "FL",
    "latitude": 30.4213,
    "longitude": -87.2169,
    "county": "Escambia County",
    "cwa": "MOB",
    "ugc_codes": "[\"FLZ202\",\"FLC033\"]",
    "office_code": "32501",
    "observation_station": "KPNS"
  },
  {
    "name": "East Hill Pensacola",
    "city": "Pensacola",
    "state": "FL",
    "latitude": 30.4394,
    "longitude": -87.2039,
    "county": "Escambia County",
    "cwa": "MOB",
    "ugc_codes": "[\"FLZ202\",\"FLC033\"]",
    "office_code": "32503",
    "observation_station": "KPNS"
  },
  {
    "name": "Downtown Mobile",
    "city": "Mobile",
    "state": "AL",
    "latitude": 30.6954,
    "longitude": -88.0399,
    "county": "Mobile County",
    "cwa": "MOB",
    "ugc_codes": "[\"ALZ263\",\"ALC097\"]",
    "office_code": "36602",
    "observation_station": "KBFM"
  },
  {
    "name": "Midtown Mobile",
    "city": "Mobile",
    "state": "AL",
    "latitude": 30.6884,
    "longitude": -88.1029,
    "county": "Mobile County",
    "cwa": "MOB",
    "ugc_codes": "[\"ALZ263\",\"ALC097\"]",
    "office_code": "36607",
    "observation_station": "KBFM"
  },
  {
    "name": "Downtown St Paul",
    "city": "Saint Paul",
    "state": "MN",
    "latitude": 44.9537,
    "longitude": -93.09,
    "county": "Ramsey County",
    "cwa": "MPX",
    "ugc_codes": "[\"MNZ062\",\"MNC123\"]",
    "office_code": "55101",
    "observation_station": "KSTP"
  },
  {
    "name": "Downtown Minneapolis",
    "city": "Minneapolis",
    "state": "MN",
    "latitude": 44.9778,
    "longitude": -93.2655,
    "county": "Hennepin County",
    "cwa": "MPX",
    "ugc_codes": "[\"MNZ060\",\"MNC053\"]",
    "office_code": "55401",
    "observation_station": "KMSP"
  },
  {
    "name": "Downtown Chattanooga",
    "city": "Chattanooga",
    "state": "TN",
    "latitude": 35.0456,
    "longitude": -85.3097,
    "county": "Hamilton County",
    "cwa": "MRX",
    "ugc_codes": "[\"TNZ099\",\"TNC065\"]",
    "office_code": "37402",
    "observation_station": "KCHA"
  },
  {
    "name": "East Brainerd Chattanooga",
    "city": "Chattanooga",
    "state": "TN",
    "latitude": 35.0131,
    "longitude": -85.2109,
    "county": "Hamilton County",
    "cwa": "MRX",
    "ugc_codes": "[\"TNZ099\",\"TNC065\"]",
    "office_code": "37411",
    "observation_station": "KCHA"
  },
  {
    "name": "Downtown Knoxville",
    "city": "Knoxville",
    "state": "TN",
    "latitude": 35.9606,
    "longitude": -83.9207,
    "county": "Knox County",
    "cwa": "MRX",
    "ugc_codes": "[\"TNZ069\",\"TNC093\"]",
    "office_code": "37902",
    "observation_station": "KDKX"
  },
  {
    "name": "West Knoxville",
    "city": "Knoxville",
    "state": "TN",
    "latitude": 35.9363,
    "longitude": -84.0177,
    "county": "Knox County",
    "cwa": "MRX",
    "ugc_codes": "[\"TNZ069\",\"TNC093\"]",
    "office_code": "37919",
    "observation_station": "KDKX"
  },
  {
    "name": "Downtown Missoula",
    "city": "Missoula",
    "state": "MT",
    "latitude": 46.8721,
    "longitude": -113.994,
    "county": "Missoula County",
    "cwa": "MSO",
    "ugc_codes": "[\"MTZ005\",\"MTC063\"]",
    "office_code": "59801",
    "observation_station": "KMSO"
  },
  {
    "name": "University Missoula",
    "city": "Missoula",
    "state": "MT",
    "latitude": 46.8721,
    "longitude": -113.9627,
    "county": "Missoula County",
    "cwa": "MSO",
    "ugc_codes": "[\"MTZ005\",\"MTC063\"]",
    "office_code": "59802",
    "observation_station": "KMSO"
  },
  {
    "name": "Civic Center San Francisco",
    "city": "San Francisco",
    "state": "CA",
    "latitude": 37.7793,
    "longitude": -122.4167,
    "county": "San Francisco County",
    "cwa": "MTR",
    "ugc_codes": "[\"CAZ006\",\"CAC075\"]",
    "office_code": "94102",
    "observation_station": "SFOC1"
  },
  {
    "name": "Downtown Oakland",
    "city": "Oakland",
    "state": "CA",
    "latitude": 37.8044,
    "longitude": -122.2711,
    "county": "Alameda County",
    "cwa": "MTR",
    "ugc_codes": "[\"CAZ508\",\"CAC001\"]",
    "office_code": "94612",
    "observation_station": "D3169"
  },
  {
    "name": "Downtown San Jose",
    "city": "San Jose",
    "state": "CA",
    "latitude": 37.3387,
    "longitude": -121.8853,
    "county": "Santa Clara County",
    "cwa": "MTR",
    "ugc_codes": "[\"CAZ513\",\"CAC085\"]",
    "office_code": "95113",
    "observation_station": "KSJC"
  },
  {
    "name": "West San Jose",
    "city": "San Jose",
    "state": "CA",
    "latitude": 37.329,
    "longitude": -121.9063,
    "county": "Santa Clara County",
    "cwa": "MTR",
    "ugc_codes": "[\"CAZ513\",\"CAC085\"]",
    "office_code": "95126",
    "observation_station": "KSJC"
  },
  {
    "name": "Downtown Omaha",
    "city": "Omaha",
    "state": "NE",
    "latitude": 41.2524,
    "longitude": -95.998,
    "county": "Douglas County",
    "cwa": "OAX",
    "ugc_codes": "[\"NEZ052\",\"NEC055\"]",
    "office_code": "68102",
    "observation_station": "KOMA"
  },
  {
    "name": "Dundee Omaha",
    "city": "Omaha",
    "state": "NE",
    "latitude": 41.2696,
    "longitude": -96.0239,
    "county": "Douglas County",
    "cwa": "OAX",
    "ugc_codes": "[\"NEZ052\",\"NEC055\"]",
    "office_code": "68132",
    "observation_station": "KMLE"
  },
  {
    "name": "Near South Lincoln",
    "city": "Lincoln",
    "state": "NE",
    "latitude": 40.8075,
    "longitude": -96.6925,
    "county": "Lancaster County",
    "cwa": "OAX",
    "ugc_codes": "[\"NEZ066\",\"NEC109\"]",
    "office_code": "68502",
    "observation_station": "KLNK"
  },
  {
    "name": "Downtown Lincoln",
    "city": "Lincoln",
    "state": "NE",
    "latitude": 40.8136,
    "longitude": -96.7025,
    "county": "Lancaster County",
    "cwa": "OAX",
    "ugc_codes": "[\"NEZ066\",\"NEC109\"]",
    "office_code": "68508",
    "observation_station": "KLNK"
  },
  {
    "name": "Midtown Nashville",
    "city": "Nashville",
    "state": "TN",
    "latitude": 36.156,
    "longitude": -86.7844,
    "county": "Davidson County",
    "cwa": "OHX",
    "ugc_codes": "[\"TNZ027\",\"TNC037\"]",
    "office_code": "37203",
    "observation_station": "KBNA"
  },
  {
    "name": "East Nashville",
    "city": "Nashville",
    "state": "TN",
    "latitude": 36.168,
    "longitude": -86.7444,
    "county": "Davidson County",
    "cwa": "OHX",
    "ugc_codes": "[\"TNZ027\",\"TNC037\"]",
    "office_code": "37206",
    "observation_station": "KBNA"
  },
  {
    "name": "Downtown New Haven",
    "city": "New Haven",
    "state": "CT",
    "latitude": 41.3083,
    "longitude": -72.9279,
    "county": "New Haven County",
    "cwa": "OKX",
    "ugc_codes": "[\"CTZ010\",\"CTC009\"]",
    "office_code": "06510",
    "observation_station": "KHVN"
  },
  {
    "name": "East Rock New Haven",
    "city": "New Haven",
    "state": "CT",
    "latitude": 41.3213,
    "longitude": -72.9157,
    "county": "New Haven County",
    "cwa": "OKX",
    "ugc_codes": "[\"CTZ010\",\"CTC009\"]",
    "office_code": "06511",
    "observation_station": "KHVN"
  },
  {
    "name": "Midtown Manhattan",
    "city": "New York City",
    "state": "NY",
    "latitude": 40.7506,
    "longitude": -73.9971,
    "county": "New York County",
    "cwa": "OKX",
    "ugc_codes": "[\"NYZ072\",\"NYC061\"]",
    "office_code": "10001",
    "observation_station": "KNYC"
  },
  {
    "name": "South Bronx",
    "city": "Bronx",
    "state": "NY",
    "latitude": 40.8193,
    "longitude": -73.9271,
    "county": "Bronx County",
    "cwa": "OKX",
    "ugc_codes": "[\"NYZ073\",\"NYC005\"]",
    "office_code": "10451",
    "observation_station": "KNYC"
  },
  {
    "name": "Downtown Spokane",
    "city": "Spokane",
    "state": "WA",
    "latitude": 47.6588,
    "longitude": -117.426,
    "county": "Spokane County",
    "cwa": "OTX",
    "ugc_codes": "[\"WAZ036\",\"WAC063\"]",
    "office_code": "99201",
    "observation_station": "KGEG"
  },
  {
    "name": "Northeast Spokane",
    "city": "Spokane",
    "state": "WA",
    "latitude": 47.684,
    "longitude": -117.3859,
    "county": "Spokane County",
    "cwa": "OTX",
    "ugc_codes": "[\"WAZ036\",\"WAC063\"]",
    "office_code": "99207",
    "observation_station": "KSFF"
  },
  {
    "name": "Downtown Oklahoma City",
    "city": "Oklahoma City",
    "state": "OK",
    "latitude": 35.4676,
    "longitude": -97.5164,
    "county": "Oklahoma County",
    "cwa": "OUN",
    "ugc_codes": "[\"OKZ025\",\"OKC109\"]",
    "office_code": "73102",
    "observation_station": "KOKC"
  },
  {
    "name": "North Oklahoma City",
    "city": "Oklahoma City",
    "state": "OK",
    "latitude": 35.5673,
    "longitude": -97.5424,
    "county": "Oklahoma County",
    "cwa": "OUN",
    "ugc_codes": "[\"OKZ025\",\"OKC109\"]",
    "office_code": "73120",
    "observation_station": "KPWA"
  },
  {
    "name": "Downtown Evansville",
    "city": "Evansville",
    "state": "IN",
    "latitude": 37.9716,
    "longitude": -87.5711,
    "county": "Vanderburgh County",
    "cwa": "PAH",
    "ugc_codes": "[\"INZ086\",\"INC163\"]",
    "office_code": "47708",
    "observation_station": "KEVV"
  },
  {
    "name": "East Evansville",
    "city": "Evansville",
    "state": "IN",
    "latitude": 37.9674,
    "longitude": -87.5227,
    "county": "Vanderburgh County",
    "cwa": "PAH",
    "ugc_codes": "[\"INZ086\",\"INC163\"]",
    "office_code": "47714",
    "observation_station": "KEVV"
  },
  {
    "name": "Oakland Pittsburgh",
    "city": "Pittsburgh",
    "state": "PA",
    "latitude": 40.4412,
    "longitude": -79.9558,
    "county": "Allegheny County",
    "cwa": "PBZ",
    "ugc_codes": "[\"PAZ021\",\"PAC003\"]",
    "office_code": "15213",
    "observation_station": "KAGC"
  },
  {
    "name": "Downtown Pittsburgh",
    "city": "Pittsburgh",
    "state": "PA",
    "latitude": 40.4412,
    "longitude": -80.0008,
    "county": "Allegheny County",
    "cwa": "PBZ",
    "ugc_codes": "[\"PAZ021\",\"PAC003\"]",
    "office_code": "15222",
    "observation_station": "KAGC"
  },
  {
    "name": "Downtown Bend",
    "city": "Bend",
    "state": "OR",
    "latitude": 44.0582,
    "longitude": -121.3153,
    "county": "Deschutes County",
    "cwa": "PDT",
    "ugc_codes": "[\"ORZ511\",\"ORC017\"]",
    "office_code": "97701",
    "observation_station": "KBDN"
  },
  {
    "name": "South Bend OR",
    "city": "Bend",
    "state": "OR",
    "latitude": 44.029,
    "longitude": -121.3153,
    "county": "Deschutes County",
    "cwa": "PDT",
    "ugc_codes": "[\"ORZ511\",\"ORC017\"]",
    "office_code": "97702",
    "observation_station": "KBDN"
  },
  {
    "name": "Downtown Trenton",
    "city": "Trenton",
    "state": "NJ",
    "latitude": 40.2206,
    "longitude": -74.7597,
    "county": "Mercer County",
    "cwa": "PHI",
    "ugc_codes": "[\"NJZ015\",\"NJC021\"]",
    "office_code": "08608",
    "observation_station": "KTTN"
  },
  {
    "name": "West Trenton",
    "city": "Trenton",
    "state": "NJ",
    "latitude": 40.228,
    "longitude": -74.7747,
    "county": "Mercer County",
    "cwa": "PHI",
    "ugc_codes": "[\"NJZ015\",\"NJC021\"]",
    "office_code": "08618",
    "observation_station": "KTTN"
  },
  {
    "name": "Center City Philadelphia",
    "city": "Philadelphia",
    "state": "PA",
    "latitude": 39.9496,
    "longitude": -75.1643,
    "county": "Philadelphia County",
    "cwa": "PHI",
    "ugc_codes": "[\"PAZ071\",\"PAC101\"]",
    "office_code": "19102",
    "observation_station": "KPHL"
  },
  {
    "name": "Kensington Philadelphia",
    "city": "Philadelphia",
    "state": "PA",
    "latitude": 39.9883,
    "longitude": -75.1177,
    "county": "Philadelphia County",
    "cwa": "PHI",
    "ugc_codes": "[\"PAZ071\",\"PAC101\"]",
    "office_code": "19134",
    "observation_station": "KPNE"
  },
  {
    "name": "Downtown Wilmington DE",
    "city": "Wilmington",
    "state": "DE",
    "latitude": 39.7447,
    "longitude": -75.5484,
    "county": "New Castle County",
    "cwa": "PHI",
    "ugc_codes": "[\"DEZ001\",\"DEC003\"]",
    "office_code": "19801",
    "observation_station": "KILG"
  },
  {
    "name": "West Wilmington DE",
    "city": "Wilmington",
    "state": "DE",
    "latitude": 39.7356,
    "longitude": -75.568,
    "county": "New Castle County",
    "cwa": "PHI",
    "ugc_codes": "[\"DEZ001\",\"DEC003\"]",
    "office_code": "19805",
    "observation_station": "KILG"
  },
  {
    "name": "Downtown Dover",
    "city": "Dover",
    "state": "DE",
    "latitude": 39.1582,
    "longitude": -75.5244,
    "county": "Kent County",
    "cwa": "PHI",
    "ugc_codes": "[\"DEZ002\",\"DEC001\"]",
    "office_code": "19901",
    "observation_station": "KDOV"
  },
  {
    "name": "North Dover",
    "city": "Dover",
    "state": "DE",
    "latitude": 39.1745,
    "longitude": -75.5224,
    "county": "Kent County",
    "cwa": "PHI",
    "ugc_codes": "[\"DEZ002\",\"DEC001\"]",
    "office_code": "19904",
    "observation_station": "KDOV"
  },
  {
    "name": "Downtown Portland",
    "city": "Portland",
    "state": "OR",
    "latitude": 45.5051,
    "longitude": -122.675,
    "county": "Multnomah County",
    "cwa": "PQR",
    "ugc_codes": "[\"ORZ111\",\"ORC051\"]",
    "office_code": "97201",
    "observation_station": "KPDX"
  },
  {
    "name": "Southeast Portland",
    "city": "Portland",
    "state": "OR",
    "latitude": 45.5088,
    "longitude": -122.6511,
    "county": "Multnomah County",
    "cwa": "PQR",
    "ugc_codes": "[\"ORZ111\",\"ORC051\"]",
    "office_code": "97214",
    "observation_station": "KPDX"
  },
  {
    "name": "Downtown Eugene",
    "city": "Eugene",
    "state": "OR",
    "latitude": 44.0521,
    "longitude": -123.0868,
    "county": "Lane County",
    "cwa": "PQR",
    "ugc_codes": "[\"ORZ118\",\"ORC039\"]",
    "office_code": "97401",
    "observation_station": "KEUG"
  },
  {
    "name": "South Eugene",
    "city": "Eugene",
    "state": "OR",
    "latitude": 44.0295,
    "longitude": -123.0868,
    "county": "Lane County",
    "cwa": "PQR",
    "ugc_codes": "[\"ORZ118\",\"ORC039\"]",
    "office_code": "97405",
    "observation_station": "KEUG"
  },
  {
    "name": "Downtown Phoenix",
    "city": "Phoenix",
    "state": "AZ",
    "latitude": 33.4484,
    "longitude": -112.074,
    "county": "Maricopa County",
    "cwa": "PSR",
    "ugc_codes": "[\"AZZ543\",\"AZC013\"]",
    "office_code": "85004",
    "observation_station": "KPHX"
  },
  {
    "name": "Tempe",
    "city": "Tempe",
    "state": "AZ",
    "latitude": 33.4255,
    "longitude": -111.9401,
    "county": "Maricopa County",
    "cwa": "PSR",
    "ugc_codes": "[\"AZZ548\",\"AZC013\"]",
    "office_code": "85281",
    "observation_station": "KPHX"
  },
  {
    "name": "Downtown Colorado Springs",
    "city": "Colorado Springs",
    "state": "CO",
    "latitude": 38.8339,
    "longitude": -104.8214,
    "county": "El Paso County",
    "cwa": "PUB",
    "ugc_codes": "[\"COZ085\",\"COC041\"]",
    "office_code": "80903",
    "observation_station": "KCOS"
  },
  {
    "name": "East Colorado Springs",
    "city": "Colorado Springs",
    "state": "CO",
    "latitude": 38.8449,
    "longitude": -104.7827,
    "county": "El Paso County",
    "cwa": "PUB",
    "ugc_codes": "[\"COZ085\",\"COC041\"]",
    "office_code": "80909",
    "observation_station": "KCOS"
  },
  {
    "name": "Downtown Greensboro",
    "city": "Greensboro",
    "state": "NC",
    "latitude": 36.0726,
    "longitude": -79.792,
    "county": "Guilford County",
    "cwa": "RAH",
    "ugc_codes": "[\"NCZ022\",\"NCC081\"]",
    "office_code": "27401",
    "observation_station": "KGSO"
  },
  {
    "name": "College Hill Greensboro",
    "city": "Greensboro",
    "state": "NC",
    "latitude": 36.0891,
    "longitude": -79.7681,
    "county": "Guilford County",
    "cwa": "RAH",
    "ugc_codes": "[\"NCZ022\",\"NCC081\"]",
    "office_code": "27408",
    "observation_station": "KGSO"
  },
  {
    "name": "Downtown Raleigh",
    "city": "Raleigh",
    "state": "NC",
    "latitude": 35.7796,
    "longitude": -78.6382,
    "county": "Wake County",
    "cwa": "RAH",
    "ugc_codes": "[\"NCZ041\",\"NCC183\"]",
    "office_code": "27601",
    "observation_station": "KJNX"
  },
  {
    "name": "West Raleigh",
    "city": "Raleigh",
    "state": "NC",
    "latitude": 35.7751,
    "longitude": -78.673,
    "county": "Wake County",
    "cwa": "RAH",
    "ugc_codes": "[\"NCZ041\",\"NCC183\"]",
    "office_code": "27607",
    "observation_station": "KJNX"
  },
  {
    "name": "Downtown Durham",
    "city": "Durham",
    "state": "NC",
    "latitude": 35.994,
    "longitude": -78.8986,
    "county": "Durham County",
    "cwa": "RAH",
    "ugc_codes": "[\"NCZ025\",\"NCC063\"]",
    "office_code": "27701",
    "observation_station": "KRDU"
  },
  {
    "name": "West Durham",
    "city": "Durham",
    "state": "NC",
    "latitude": 35.9928,
    "longitude": -79.0023,
    "county": "Durham County",
    "cwa": "RAH",
    "ugc_codes": "[\"NCZ025\",\"NCC063\"]",
    "office_code": "27705",
    "observation_station": "KBUY"
  },
  {
    "name": "Downtown Reno",
    "city": "Reno",
    "state": "NV",
    "latitude": 39.5296,
    "longitude": -119.8138,
    "county": "Washoe County",
    "cwa": "REV",
    "ugc_codes": "[\"NVZ003\",\"NVC031\"]",
    "office_code": "89501",
    "observation_station": "E6216"
  },
  {
    "name": "South Reno",
    "city": "Reno",
    "state": "NV",
    "latitude": 39.5072,
    "longitude": -119.8228,
    "county": "Washoe County",
    "cwa": "REV",
    "ugc_codes": "[\"NVZ003\",\"NVC031\"]",
    "office_code": "89509",
    "observation_station": "E6216"
  },
  {
    "name": "Downtown Charleston WV",
    "city": "Charleston",
    "state": "WV",
    "latitude": 38.3498,
    "longitude": -81.6326,
    "county": "Kanawha County",
    "cwa": "RLX",
    "ugc_codes": "[\"WVZ015\",\"WVC039\"]",
    "office_code": "25301",
    "observation_station": "KCRW"
  },
  {
    "name": "South Hills Charleston WV",
    "city": "Charleston",
    "state": "WV",
    "latitude": 38.3225,
    "longitude": -81.6256,
    "county": "Kanawha County",
    "cwa": "RLX",
    "ugc_codes": "[\"WVZ015\",\"WVC039\"]",
    "office_code": "25304",
    "observation_station": "KCRW"
  },
  {
    "name": "Downtown Roanoke",
    "city": "Roanoke",
    "state": "VA",
    "latitude": 37.271,
    "longitude": -79.9414,
    "county": "City of Roanoke",
    "cwa": "RNK",
    "ugc_codes": "[\"VAZ022\",\"VAC770\"]",
    "office_code": "24011",
    "observation_station": "KROA"
  },
  {
    "name": "South Roanoke",
    "city": "Roanoke",
    "state": "VA",
    "latitude": 37.2589,
    "longitude": -79.9594,
    "county": "City of Roanoke",
    "cwa": "RNK",
    "ugc_codes": "[\"VAZ022\",\"VAC770\"]",
    "office_code": "24016",
    "observation_station": "KROA"
  },
  {
    "name": "Downtown Seattle",
    "city": "Seattle",
    "state": "WA",
    "latitude": 47.6062,
    "longitude": -122.3321,
    "county": "King County",
    "cwa": "SEW",
    "ugc_codes": "[\"WAZ315\",\"WAC033\"]",
    "office_code": "98101",
    "observation_station": "KBFI"
  },
  {
    "name": "University District Seattle",
    "city": "Seattle",
    "state": "WA",
    "latitude": 47.6816,
    "longitude": -122.2977,
    "county": "King County",
    "cwa": "SEW",
    "ugc_codes": "[\"WAZ315\",\"WAC033\"]",
    "office_code": "98115",
    "observation_station": "SEAW1"
  },
  {
    "name": "Downtown Tacoma",
    "city": "Tacoma",
    "state": "WA",
    "latitude": 47.2529,
    "longitude": -122.4443,
    "county": "Pierce County",
    "cwa": "SEW",
    "ugc_codes": "[\"WAZ316\",\"WAC053\"]",
    "office_code": "98402",
    "observation_station": "KTIW"
  },
  {
    "name": "South Tacoma",
    "city": "Tacoma",
    "state": "WA",
    "latitude": 47.246,
    "longitude": -122.4693,
    "county": "Pierce County",
    "cwa": "SEW",
    "ugc_codes": "[\"WAZ316\",\"WAC053\"]",
    "office_code": "98405",
    "observation_station": "KTIW"
  },
  {
    "name": "West Springfield MO",
    "city": "Springfield",
    "state": "MO",
    "latitude": 37.2255,
    "longitude": -93.3109,
    "county": "Greene County",
    "cwa": "SGF",
    "ugc_codes": "[\"MOZ090\",\"MOC077\"]",
    "office_code": "65802",
    "observation_station": "KSGF"
  },
  {
    "name": "Downtown Springfield MO",
    "city": "Springfield",
    "state": "MO",
    "latitude": 37.209,
    "longitude": -93.2923,
    "county": "Greene County",
    "cwa": "SGF",
    "ugc_codes": "[\"MOZ090\",\"MOC077\"]",
    "office_code": "65806",
    "observation_station": "KSGF"
  },
  {
    "name": "Downtown San Diego",
    "city": "San Diego",
    "state": "CA",
    "latitude": 32.7157,
    "longitude": -117.1611,
    "county": "San Diego County",
    "cwa": "SGX",
    "ugc_codes": "[\"CAZ043\",\"CAC073\"]",
    "office_code": "92101",
    "observation_station": "KSAN"
  },
  {
    "name": "Pacific Beach",
    "city": "San Diego",
    "state": "CA",
    "latitude": 32.7971,
    "longitude": -117.2353,
    "county": "San Diego County",
    "cwa": "SGX",
    "ugc_codes": "[\"CAZ043\",\"CAC073\"]",
    "office_code": "92109",
    "observation_station": "E9873"
  },
  {
    "name": "San Bernardino",
    "city": "San Bernardino",
    "state": "CA",
    "latitude": 34.1083,
    "longitude": -117.2898,
    "county": "San Bernardino County",
    "cwa": "SGX",
    "ugc_codes": "[\"CAZ048\",\"CAC071\"]",
    "office_code": "92401",
    "observation_station": "KSBD"
  },
  {
    "name": "Downtown Riverside",
    "city": "Riverside",
    "state": "CA",
    "latitude": 33.9806,
    "longitude": -117.3756,
    "county": "Riverside County",
    "cwa": "SGX",
    "ugc_codes": "[\"CAZ048\",\"CAC065\"]",
    "office_code": "92501",
    "observation_station": "KRAL"
  },
  {
    "name": "Downtown Shreveport",
    "city": "Shreveport",
    "state": "LA",
    "latitude": 32.5252,
    "longitude": -93.7502,
    "county": "Caddo Parish",
    "cwa": "SHV",
    "ugc_codes": "[\"LAZ001\",\"LAC017\"]",
    "office_code": "71101",
    "observation_station": "KDTN"
  },
  {
    "name": "South Highlands Shreveport",
    "city": "Shreveport",
    "state": "LA",
    "latitude": 32.5073,
    "longitude": -93.7342,
    "county": "Caddo Parish",
    "cwa": "SHV",
    "ugc_codes": "[\"LAZ001\",\"LAC017\"]",
    "office_code": "71105",
    "observation_station": "KDTN"
  },
  {
    "name": "Downtown Salt Lake City",
    "city": "Salt Lake City",
    "state": "UT",
    "latitude": 40.7608,
    "longitude": -111.891,
    "county": "Salt Lake County",
    "cwa": "SLC",
    "ugc_codes": "[\"UTZ105\",\"UTC035\"]",
    "office_code": "84101",
    "observation_station": "KSLC"
  },
  {
    "name": "Sugar House Salt Lake City",
    "city": "Salt Lake City",
    "state": "UT",
    "latitude": 40.7242,
    "longitude": -111.8568,
    "county": "Salt Lake County",
    "cwa": "SLC",
    "ugc_codes": "[\"UTZ105\",\"UTC035\"]",
    "office_code": "84105",
    "observation_station": "KSLC"
  },
  {
    "name": "Downtown Provo",
    "city": "Provo",
    "state": "UT",
    "latitude": 40.2338,
    "longitude": -111.6585,
    "county": "Utah County",
    "cwa": "SLC",
    "ugc_codes": "[\"UTZ106\",\"UTC049\"]",
    "office_code": "84601",
    "observation_station": "KPVU"
  },
  {
    "name": "North Provo",
    "city": "Provo",
    "state": "UT",
    "latitude": 40.26,
    "longitude": -111.6441,
    "county": "Utah County",
    "cwa": "SLC",
    "ugc_codes": "[\"UTZ106\",\"UTC049\"]",
    "office_code": "84604",
    "observation_station": "KPVU"
  },
  {
    "name": "Downtown Stockton",
    "city": "Stockton",
    "state": "CA",
    "latitude": 37.9577,
    "longitude": -121.2908,
    "county": "San Joaquin County",
    "cwa": "STO",
    "ugc_codes": "[\"CAZ019\",\"CAC077\"]",
    "office_code": "95202",
    "observation_station": "KSCK"
  },
  {
    "name": "North Stockton",
    "city": "Stockton",
    "state": "CA",
    "latitude": 37.9833,
    "longitude": -121.3102,
    "county": "San Joaquin County",
    "cwa": "STO",
    "ugc_codes": "[\"CAZ019\",\"CAC077\"]",
    "office_code": "95207",
    "observation_station": "KSCK"
  },
  {
    "name": "West Modesto",
    "city": "Modesto",
    "state": "CA",
    "latitude": 37.6391,
    "longitude": -121.0001,
    "county": "Stanislaus County",
    "cwa": "STO",
    "ugc_codes": "[\"CAZ019\",\"CAC099\"]",
    "office_code": "95350",
    "observation_station": "KMOD"
  },
  {
    "name": "Downtown Modesto",
    "city": "Modesto",
    "state": "CA",
    "latitude": 37.6391,
    "longitude": -120.9969,
    "county": "Stanislaus County",
    "cwa": "STO",
    "ugc_codes": "[\"CAZ019\",\"CAC099\"]",
    "office_code": "95354",
    "observation_station": "KMOD"
  },
  {
    "name": "Downtown Sacramento",
    "city": "Sacramento",
    "state": "CA",
    "latitude": 38.5816,
    "longitude": -121.4944,
    "county": "Sacramento County",
    "cwa": "STO",
    "ugc_codes": "[\"CAZ017\",\"CAC067\"]",
    "office_code": "95814",
    "observation_station": "KSAC"
  },
  {
    "name": "Arden Arcade Sacramento",
    "city": "Sacramento",
    "state": "CA",
    "latitude": 38.6043,
    "longitude": -121.3938,
    "county": "Sacramento County",
    "cwa": "STO",
    "ugc_codes": "[\"CAZ017\",\"CAC067\"]",
    "office_code": "95821",
    "observation_station": "KMHR"
  },
  {
    "name": "Downtown Tallahassee",
    "city": "Tallahassee",
    "state": "FL",
    "latitude": 30.4518,
    "longitude": -84.2807,
    "county": "Leon County",
    "cwa": "TAE",
    "ugc_codes": "[\"FLZ017\",\"FLC073\"]",
    "office_code": "32301",
    "observation_station": "KTLH"
  },
  {
    "name": "Midtown Tallahassee",
    "city": "Tallahassee",
    "state": "FL",
    "latitude": 30.4683,
    "longitude": -84.3109,
    "county": "Leon County",
    "cwa": "TAE",
    "ugc_codes": "[\"FLZ017\",\"FLC073\"]",
    "office_code": "32303",
    "observation_station": "KTLH"
  },
  {
    "name": "Downtown Tampa",
    "city": "Tampa",
    "state": "FL",
    "latitude": 27.9506,
    "longitude": -82.4572,
    "county": "Hillsborough County",
    "cwa": "TBW",
    "ugc_codes": "[\"FLZ151\",\"FLC057\"]",
    "office_code": "33602",
    "observation_station": "KTPF"
  },
  {
    "name": "St Petersburg",
    "city": "Saint Petersburg",
    "state": "FL",
    "latitude": 27.7731,
    "longitude": -82.6397,
    "county": "Pinellas County",
    "cwa": "TBW",
    "ugc_codes": "[\"FLZ050\",\"FLC103\"]",
    "office_code": "33701",
    "observation_station": "KSPG"
  },
  {
    "name": "South Sarasota",
    "city": "Sarasota",
    "state": "FL",
    "latitude": 27.2685,
    "longitude": -82.5248,
    "county": "Sarasota County",
    "cwa": "TBW",
    "ugc_codes": "[\"FLZ160\",\"FLC115\"]",
    "office_code": "34231",
    "observation_station": "KSRQ"
  },
  {
    "name": "Downtown Sarasota",
    "city": "Sarasota",
    "state": "FL",
    "latitude": 27.3364,
    "longitude": -82.5308,
    "county": "Sarasota County",
    "cwa": "TBW",
    "ugc_codes": "[\"FLZ160\",\"FLC115\"]",
    "office_code": "34237",
    "observation_station": "KSRQ"
  },
  {
    "name": "Downtown Topeka",
    "city": "Topeka",
    "state": "KS",
    "latitude": 39.0473,
    "longitude": -95.6752,
    "county": "Shawnee County",
    "cwa": "TOP",
    "ugc_codes": "[\"KSZ039\",\"KSC177\"]",
    "office_code": "66603",
    "observation_station": "KTOP"
  },
  {
    "name": "East Topeka",
    "city": "Topeka",
    "state": "KS",
    "latitude": 39.0533,
    "longitude": -95.6323,
    "county": "Shawnee County",
    "cwa": "TOP",
    "ugc_codes": "[\"KSZ039\",\"KSC177\"]",
    "office_code": "66607",
    "observation_station": "KTOP"
  },
  {
    "name": "Downtown Tulsa",
    "city": "Tulsa",
    "state": "OK",
    "latitude": 36.154,
    "longitude": -95.9928,
    "county": "Tulsa County",
    "cwa": "TSA",
    "ugc_codes": "[\"OKZ060\",\"OKC143\"]",
    "office_code": "74103",
    "observation_station": "KTUL"
  },
  {
    "name": "Brookside Tulsa",
    "city": "Tulsa",
    "state": "OK",
    "latitude": 36.1299,
    "longitude": -95.9678,
    "county": "Tulsa County",
    "cwa": "TSA",
    "ugc_codes": "[\"OKZ060\",\"OKC143\"]",
    "office_code": "74114",
    "observation_station": "KRVS"
  },
  {
    "name": "Downtown Tucson",
    "city": "Tucson",
    "state": "AZ",
    "latitude": 32.2217,
    "longitude": -110.9265,
    "county": "Pima County",
    "cwa": "TWC",
    "ugc_codes": "[\"AZZ504\",\"AZC019\"]",
    "office_code": "85701",
    "observation_station": "KDMA"
  },
  {
    "name": "University Tucson",
    "city": "Tucson",
    "state": "AZ",
    "latitude": 32.2352,
    "longitude": -110.9485,
    "county": "Pima County",
    "cwa": "TWC",
    "ugc_codes": "[\"AZZ504\",\"AZC019\"]",
    "office_code": "85719",
    "observation_station": "KDMA"
  },
  {
    "name": "Downtown Rapid City",
    "city": "Rapid City",
    "state": "SD",
    "latitude": 44.0805,
    "longitude": -103.231,
    "county": "Meade County",
    "cwa": "UNR",
    "ugc_codes": "[\"SDZ072\",\"SDC093\"]",
    "office_code": "57701",
    "observation_station": "KRAP"
  },
  {
    "name": "West Rapid City",
    "city": "Rapid City",
    "state": "SD",
    "latitude": 44.0767,
    "longitude": -103.256,
    "county": "Pennington County",
    "cwa": "UNR",
    "ugc_codes": "[\"SDZ028\",\"SDC103\"]",
    "office_code": "57702",
    "observation_station": "KRAP"
  },
  {
    "name": "Downtown Las Vegas",
    "city": "Las Vegas",
    "state": "NV",
    "latitude": 36.1699,
    "longitude": -115.1398,
    "county": "Clark County",
    "cwa": "VEF",
    "ugc_codes": "[\"NVZ020\",\"NVC003\"]",
    "office_code": "89101",
    "observation_station": "KVGT"
  },
  {
    "name": "The Strip Las Vegas",
    "city": "Las Vegas",
    "state": "NV",
    "latitude": 36.1147,
    "longitude": -115.1728,
    "county": "Clark County",
    "cwa": "VEF",
    "ugc_codes": "[\"NVZ020\",\"NVC003\"]",
    "office_code": "89109",
    "observation_station": "KLAS"
  }
]
